{
	"type": "FeatureCollection",
	"features": [{
			"type": "Feature",
			"properties": {
				"@id": "node/196021",
				"highway": "traffic_signals",
				"is_in": "Barnet, London, England, United Kingdom",
				"name": "Whetstone",
				"place": "suburb",
				"wikidata": "Q150188",
				"wikipedia": "en:Whetstone, London"
			},
			"geometry": {
				"type": "Point",
				"coordinates": [-0.1748844, 51.6301762]
			},
			"id": "node/196021"
		}, {
			"type": "Feature",
			"properties": {
				"@id": "node/196694",
				"is_in": "Barnet, London, England, United Kingdom",
				"name": "Temple Fortune",
				"name:hi": "टेम्पल फ़ॉर्ट्यून",
				"place": "suburb",
				"wikidata": "Q149673",
				"wikipedia": "en:Temple Fortune"
			},
			"geometry": {
				"type": "Point",
				"coordinates": [-0.1990538, 51.5819126]
			},
			"id": "node/196694"
		}, {
			"type": "Feature",
			"properties": {
				"@id": "node/200088",
				"is_in": "Barnet, London, England, United Kingdom",
				"name": "Friern Barnet",
				"place": "suburb",
				"wikidata": "Q149662",
				"wikipedia": "en:Friern Barnet"
			},
			"geometry": {
				"type": "Point",
				"coordinates": [-0.158614, 51.6128484]
			},
			"id": "node/200088"
		}, {
			"type": "Feature",
			"properties": {
				"@id": "node/201212",
				"is_in": "Haringey, London",
				"name": "Muswell Hill",
				"place": "suburb",
				"wikidata": "Q1432670",
				"wikipedia": "en:Muswell Hill"
			},
			"geometry": {
				"type": "Point",
				"coordinates": [-0.1420768, 51.5910395]
			},
			"id": "node/201212"
		}, {
			"type": "Feature",
			"properties": {
				"@id": "node/222466",
				"is_in": "Barnet, London, England, UK",
				"name": "Hendon",
				"place": "suburb",
				"wikidata": "Q149787",
				"wikipedia": "en:Hendon"
			},
			"geometry": {
				"type": "Point",
				"coordinates": [-0.22162, 51.5897442]
			},
			"id": "node/222466"
		}, {
			"type": "Feature",
			"properties": {
				"@id": "node/279640",
				"is_in": "Barnet, London, UK",
				"name": "Edgware",
				"note": "Imperial Studio, a wedding photography and videography firm in Australia, is dedicated to providing complete solutions for your wedding. It is not just about clicking the buttons;we look at every inch of the surroundings, lighting, and colour.",
				"place": "town",
				"wikidata": "Q149651",
				"wikipedia": "en:Edgware"
			},
			"geometry": {
				"type": "Point",
				"coordinates": [-0.279305, 51.6107677]
			},
			"id": "node/279640"
		}, {
			"type": "Feature",
			"properties": {
				"@id": "node/720187",
				"name": "Bushey",
				"place": "suburb",
				"wikidata": "Q10996"
			},
			"geometry": {
				"type": "Point",
				"coordinates": [-0.3622403, 51.6441737]
			},
			"id": "node/720187"
		}, {
			"type": "Feature",
			"properties": {
				"@id": "node/12631660",
				"created_by": "Potlatch 0.4b",
				"is_in": "Kent, England",
				"name": "Westerham",
				"place": "town"
			},
			"geometry": {
				"type": "Point",
				"coordinates": [0.0706133, 51.2671155]
			},
			"id": "node/12631660"
		}, {
			"type": "Feature",
			"properties": {
				"@id": "node/12981759",
				"is_in": "Surrey,England,United Kingdom",
				"name": "Woking",
				"phonetic:en": "ˈwoʊkɪŋ",
				"place": "town",
				"wikidata": "Q646225",
				"wikipedia": "en:Woking"
			},
			"geometry": {
				"type": "Point",
				"coordinates": [-0.5564726, 51.3201891]
			},
			"id": "node/12981759"
		}, {
			"type": "Feature",
			"properties": {
				"@id": "node/13878144",
				"is_in": "Lewisham, London, UK",
				"name": "Catford",
				"note": "Catford has a town hall the principal seat of local govt",
				"place": "town",
				"wikidata": "Q305029",
				"wikipedia": "en:Catford"
			},
			"geometry": {
				"type": "Point",
				"coordinates": [-0.0197534, 51.4453215]
			},
			"id": "node/13878144"
		}, {
			"type": "Feature",
			"properties": {
				"@id": "node/14698913",
				"is_in": "England, Surrey",
				"name": "Leatherhead",
				"place": "town",
				"wikidata": "Q1810766",
				"wikipedia": "en:Leatherhead"
			},
			"geometry": {
				"type": "Point",
				"coordinates": [-0.3293689, 51.2955038]
			},
			"id": "node/14698913"
		}, {
			"type": "Feature",
			"properties": {
				"@id": "node/16231633",
				"is_in:district": "Richmond upon Thames",
				"name": "Hampton Hill",
				"place": "suburb",
				"wikidata": "Q5646227"
			},
			"geometry": {
				"type": "Point",
				"coordinates": [-0.355081, 51.4278442]
			},
			"id": "node/16231633"
		}, {
			"type": "Feature",
			"properties": {
				"@id": "node/16486527",
				"is_in": "Richmond upon Thames, London, UK",
				"is_in:district": "Richmond upon Thames",
				"name": "Teddington",
				"place": "town",
				"source:name": "local knowledge",
				"wikidata": "Q2281721",
				"wikipedia": "en:Teddington"
			},
			"geometry": {
				"type": "Point",
				"coordinates": [-0.333653, 51.4277844]
			},
			"id": "node/16486527"
		}, {
			"type": "Feature",
			"properties": {
				"@id": "node/17061656",
				"is_in": "Hounslow, London, UK",
				"name": "Bedfont",
				"place": "suburb",
				"wikidata": "Q4879087"
			},
			"geometry": {
				"type": "Point",
				"coordinates": [-0.4348611831665039, 51.450984920901824]
			},
			"id": "node/17061656"
		}, {
			"type": "Feature",
			"properties": {
				"@id": "node/18083845",
				"is_in": "Wandsworth, London, UK",
				"is_in:district": "Wandsworth",
				"name": "Putney",
				"place": "town",
				"wikidata": "Q2465220",
				"wikipedia": "en:Putney"
			},
			"geometry": {
				"type": "Point",
				"coordinates": [-0.2167462, 51.4625524]
			},
			"id": "node/18083845"
		}, {
			"type": "Feature",
			"properties": {
				"@id": "node/18865696",
				"is_in": "Enfield, London, UK",
				"name": "Enfield",
				"place": "town",
				"wikidata": "Q544939",
				"wikipedia": "en:Enfield Town"
			},
			"geometry": {
				"type": "Point",
				"coordinates": [-0.0832141, 51.6517122]
			},
			"id": "node/18865696"
		}, {
			"type": "Feature",
			"properties": {
				"@id": "node/20962674",
				"is_in": "Hammersmith and Fulham, London, UK",
				"is_in:district": "Hammersmith and Fulham",
				"name": "Hammersmith",
				"name:ru": "Хаммерсмит",
				"place": "town",
				"wikidata": "Q277162",
				"wikipedia": "en:Hammersmith"
			},
			"geometry": {
				"type": "Point",
				"coordinates": [-0.2236401, 51.4920377]
			},
			"id": "node/20962674"
		}, {
			"type": "Feature",
			"properties": {
				"@id": "node/20962675",
				"is_in": "Richmond, London, UK",
				"is_in:district": "Richmond upon Thames",
				"name": "Barnes",
				"place": "suburb",
				"wikidata": "Q668140",
				"wikipedia": "en:Barnes, London"
			},
			"geometry": {
				"type": "Point",
				"coordinates": [-0.2387441, 51.4718962]
			},
			"id": "node/20962675"
		}, {
			"type": "Feature",
			"properties": {
				"@id": "node/20992523",
				"name": "Watford",
				"place": "town",
				"population": "120000",
				"source": "NPE",
				"wikidata": "Q2598",
				"wikipedia": "en:Watford"
			},
			"geometry": {
				"type": "Point",
				"coordinates": [-0.3957425, 51.6553875]
			},
			"id": "node/20992523"
		}, {
			"type": "Feature",
			"properties": {
				"@id": "node/20992546",
				"name": "Kings Langley",
				"place": "town",
				"source": "NPE",
				"wikidata": "Q19807",
				"wikipedia": "en:Kings Langley"
			},
			"geometry": {
				"type": "Point",
				"coordinates": [-0.4503027, 51.7135573]
			},
			"id": "node/20992546"
		}, {
			"type": "Feature",
			"properties": {
				"@id": "node/21042294",
				"is_in": "Westminster, London, UK",
				"name": "Pimlico",
				"place": "suburb",
				"wikidata": "Q123306",
				"wikipedia": "en:Pimlico"
			},
			"geometry": {
				"type": "Point",
				"coordinates": [-0.1398817, 51.4889993]
			},
			"id": "node/21042294"
		}, {
			"type": "Feature",
			"properties": {
				"@id": "node/21099164",
				"is_in": "Richmond upon Thames, London, UK",
				"is_in:district": "Richmond upon Thames",
				"name": "Richmond",
				"name:ru": "Ричмонд",
				"note": "it appears \"Richmond upon Thames\" just refers to the borough and was coined in the 1960s",
				"place": "town",
				"source:name": "local knowledge",
				"wikidata": "Q2500974",
				"wikipedia": "en:Richmond, London"
			},
			"geometry": {
				"type": "Point",
				"coordinates": [-0.3032767, 51.4613531]
			},
			"id": "node/21099164"
		}, {
			"type": "Feature",
			"properties": {
				"@id": "node/21099165",
				"is_in": "Richmond upon Thames, London, UK",
				"is_in:district": "Richmond upon Thames",
				"name": "Kew",
				"place": "suburb",
				"source:name": "local knowledge",
				"wikidata": "Q1740301",
				"wikipedia": "en:Kew"
			},
			"geometry": {
				"type": "Point",
				"coordinates": [-0.2881336212158203, 51.4772668537707]
			},
			"id": "node/21099165"
		}, {
			"type": "Feature",
			"properties": {
				"@id": "node/21099166",
				"is_in": "Richmond upon Thames, London, UK",
				"is_in:district": "Richmond upon Thames",
				"name": "Twickenham",
				"name:en": "Twickenham",
				"name:ru": "Туикнем",
				"place": "suburb",
				"source:name": "local knowledge",
				"wikidata": "Q1143278",
				"wikipedia": "en:Twickenham"
			},
			"geometry": {
				"type": "Point",
				"coordinates": [-0.3283389, 51.4467941]
			},
			"id": "node/21099166"
		}, {
			"type": "Feature",
			"properties": {
				"@id": "node/21122971",
				"name": "Gerrards Cross",
				"place": "town",
				"source": "NPE"
			},
			"geometry": {
				"type": "Point",
				"coordinates": [-0.5537126, 51.5878131]
			},
			"id": "node/21122971"
		}, {
			"type": "Feature",
			"properties": {
				"@id": "node/21139877",
				"created_by": "Potlatch 0.6a",
				"name": "Rickmansworth",
				"place": "town",
				"source": "NPE"
			},
			"geometry": {
				"type": "Point",
				"coordinates": [-0.4718406, 51.6390009]
			},
			"id": "node/21139877"
		}, {
			"type": "Feature",
			"properties": {
				"@id": "node/21262496",
				"admin_level": "8",
				"is_in": "Croydon, London, UK",
				"name": "Croydon",
				"place": "town",
				"population": "173314",
				"population_borough": "330587",
				"source:url": "http://en.wikipedia.org/wiki/City_status_in_the_United_Kingdom#List_of_officially_designated_cities",
				"wikidata": "Q2213391",
				"wikipedia": "en:Croydon"
			},
			"geometry": {
				"type": "Point",
				"coordinates": [-0.0995635986328125, 51.37397714612688]
			},
			"id": "node/21262496"
		}, {
			"type": "Feature",
			"properties": {
				"@id": "node/21262497",
				"is_in": "Bromley, London",
				"name": "Crystal Palace",
				"place": "suburb",
				"wikidata": "Q122909",
				"wikipedia": "en:Crystal Palace, London"
			},
			"geometry": {
				"type": "Point",
				"coordinates": [-0.0711328, 51.4193664]
			},
			"id": "node/21262497"
		}, {
			"type": "Feature",
			"properties": {
				"@id": "node/21315206",
				"is_in": "Wandsworth, London, UK",
				"name": "Wandsworth",
				"place": "town",
				"wikidata": "Q2166359",
				"wikipedia": "en:Wandsworth"
			},
			"geometry": {
				"type": "Point",
				"coordinates": [-0.1932607, 51.4570271]
			},
			"id": "node/21315206"
		}, {
			"type": "Feature",
			"properties": {
				"@id": "node/21329597",
				"is_in": "Merton, London, UK",
				"name": "South Wimbledon",
				"name:en": "South Wimbledon",
				"name:he": "וימבלדון",
				"name:ru": "Уимблдон",
				"place": "suburb",
				"wikidata": "Q2232191",
				"wikipedia": "en:South Wimbledon"
			},
			"geometry": {
				"type": "Point",
				"coordinates": [-0.1990563, 51.4191783]
			},
			"id": "node/21329597"
		}, {
			"type": "Feature",
			"properties": {
				"@id": "node/21414870",
				"created_by": "Potlatch 0.5d",
				"name": "Loughton",
				"place": "town"
			},
			"geometry": {
				"type": "Point",
				"coordinates": [0.0551751, 51.6456263]
			},
			"id": "node/21414870"
		}, {
			"type": "Feature",
			"properties": {
				"@id": "node/21415113",
				"is_in": "Waltham Forest, London, UK",
				"name": "Chingford",
				"place": "suburb",
				"wikidata": "Q3778007"
			},
			"geometry": {
				"type": "Point",
				"coordinates": [0.0039962, 51.630887]
			},
			"id": "node/21415113"
		}, {
			"type": "Feature",
			"properties": {
				"@id": "node/21434600",
				"name": "Staines-upon-Thames",
				"old_name": "Staines",
				"place": "town",
				"source:name": "local knowledge",
				"wikidata": "Q285323",
				"wikipedia": "en:Staines-upon-Thames"
			},
			"geometry": {
				"type": "Point",
				"coordinates": [-0.511044, 51.434012]
			},
			"id": "node/21434600"
		}, {
			"type": "Feature",
			"properties": {
				"@id": "node/21521237",
				"is_in": "Lambeth, London, UK",
				"name": "Brixton",
				"place": "town",
				"wikidata": "Q146690",
				"wikipedia": "en:Brixton"
			},
			"geometry": {
				"type": "Point",
				"coordinates": [-0.11527061462402344, 51.46079896968141]
			},
			"id": "node/21521237"
		}, {
			"type": "Feature",
			"properties": {
				"@id": "node/21521238",
				"is_in": "Lambeth, London, UK",
				"name": "Streatham",
				"place": "town",
				"population": "58,055",
				"wikidata": "Q146667",
				"wikipedia": "en:Streatham"
			},
			"geometry": {
				"type": "Point",
				"coordinates": [-0.1311105, 51.429769]
			},
			"id": "node/21521238"
		}, {
			"type": "Feature",
			"properties": {
				"@id": "node/21662002",
				"is_in": "Hammersmith and Fulham, London, UK",
				"name": "Shepherd's Bush",
				"place": "town",
				"population": "39724",
				"wikidata": "Q1026182",
				"wikipedia": "en:Shepherds Bush"
			},
			"geometry": {
				"type": "Point",
				"coordinates": [-0.2229007, 51.505314]
			},
			"id": "node/21662002"
		}, {
			"type": "Feature",
			"properties": {
				"@id": "node/25921913",
				"is_in": "Bexley, London",
				"name": "Sidcup",
				"place": "town",
				"wikidata": "Q146705",
				"wikipedia": "en:Sidcup"
			},
			"geometry": {
				"type": "Point",
				"coordinates": [0.101044, 51.4264002]
			},
			"id": "node/25921913"
		}, {
			"type": "Feature",
			"properties": {
				"@id": "node/25921914",
				"is_in": "Greenwich, London, UK",
				"name": "Eltham",
				"place": "town",
				"wikidata": "Q2057625",
				"wikipedia": "en:Eltham"
			},
			"geometry": {
				"type": "Point",
				"coordinates": [0.0541253, 51.4505687]
			},
			"id": "node/25921914"
		}, {
			"type": "Feature",
			"properties": {
				"@id": "node/25921915",
				"is_in": "Greenwich, London",
				"name": "New Eltham",
				"place": "suburb",
				"wikidata": "Q146849",
				"wikipedia": "en:New Eltham"
			},
			"geometry": {
				"type": "Point",
				"coordinates": [0.0685289, 51.4362297]
			},
			"id": "node/25921915"
		}, {
			"type": "Feature",
			"properties": {
				"@id": "node/25921916",
				"name": "Mottingham",
				"place": "suburb",
				"wikidata": "Q122835",
				"wikipedia": "en:Mottingham"
			},
			"geometry": {
				"type": "Point",
				"coordinates": [0.04703521728515625, 51.43434702768059]
			},
			"id": "node/25921916"
		}, {
			"type": "Feature",
			"properties": {
				"@id": "node/26049431",
				"is_in": "Bromley, London, UK",
				"is_in_postal": "Kent",
				"name": "Bromley",
				"name:ru": "Бромли",
				"place": "town",
				"population": "16826",
				"wikidata": "Q122892",
				"wikipedia": "en:Bromley"
			},
			"geometry": {
				"type": "Point",
				"coordinates": [0.0148142, 51.4028046]
			},
			"id": "node/26049431"
		}, {
			"type": "Feature",
			"properties": {
				"@id": "node/26422736",
				"is_in": "Barking and Dagenham, London, Essex, England, UK",
				"name": "Barking",
				"place": "town",
				"wikidata": "Q377720",
				"wikipedia": "en:Barking"
			},
			"geometry": {
				"type": "Point",
				"coordinates": [0.0804245, 51.5389922]
			},
			"id": "node/26422736"
		}, {
			"type": "Feature",
			"properties": {
				"@id": "node/26472010",
				"is_in": "Lewisham, London",
				"name": "Bellingham",
				"place": "suburb",
				"wikidata": "Q2488252",
				"wikipedia": "en:Bellingham, London"
			},
			"geometry": {
				"type": "Point",
				"coordinates": [-0.0245145, 51.4310809]
			},
			"id": "node/26472010"
		}, {
			"type": "Feature",
			"properties": {
				"@id": "node/26472011",
				"is_in": "Lewisham, London",
				"name": "Hither Green",
				"place": "suburb",
				"wikidata": "Q2252580",
				"wikipedia": "en:Hither Green"
			},
			"geometry": {
				"type": "Point",
				"coordinates": [-0.0054183, 51.4502982]
			},
			"id": "node/26472011"
		}, {
			"type": "Feature",
			"properties": {
				"@id": "node/26472012",
				"name": "Downham",
				"place": "suburb",
				"wikidata": "Q122529",
				"wikipedia": "en:Downham"
			},
			"geometry": {
				"type": "Point",
				"coordinates": [0.0064566, 51.426111]
			},
			"id": "node/26472012"
		}, {
			"type": "Feature",
			"properties": {
				"@id": "node/26472013",
				"name": "Catford South",
				"place": "suburb",
				"wikidata": "Q305029"
			},
			"geometry": {
				"type": "Point",
				"coordinates": [-0.0059785, 51.440517]
			},
			"id": "node/26472013"
		}, {
			"type": "Feature",
			"properties": {
				"@id": "node/26545978",
				"is_in": "Southwark, London, UK",
				"name": "Walworth",
				"place": "suburb",
				"postal_code": "SE17",
				"wikidata": "Q1231883",
				"wikipedia": "en:Walworth, London"
			},
			"geometry": {
				"type": "Point",
				"coordinates": [-0.0906603, 51.4901142]
			},
			"id": "node/26545978"
		}, {
			"type": "Feature",
			"properties": {
				"@id": "node/26546003",
				"is_in": "Southwark, London",
				"name": "Elephant and Castle",
				"place": "suburb",
				"wikidata": "Q2716414",
				"wikipedia": "en:Elephant and Castle"
			},
			"geometry": {
				"type": "Point",
				"coordinates": [-0.1003287, 51.4952794]
			},
			"id": "node/26546003"
		}, {
			"type": "Feature",
			"properties": {
				"@id": "node/26562607",
				"is_in": "Sutton, Greater London, UK",
				"name": "Hackbridge",
				"place": "suburb",
				"wikidata": "Q5637199",
				"wikipedia": "en:Hackbridge"
			},
			"geometry": {
				"type": "Point",
				"coordinates": [-0.1567541, 51.3796135]
			},
			"id": "node/26562607"
		}, {
			"type": "Feature",
			"properties": {
				"@id": "node/26683163",
				"is_in": "Essex, England, GB",
				"is_in:continent": "Europe",
				"is_in:country": "United Kingdom",
				"is_in:country_code": "GB",
				"is_in:county": "Essex",
				"name": "South Ockendon",
				"place": "town"
			},
			"geometry": {
				"type": "Point",
				"coordinates": [0.2827942, 51.5093771]
			},
			"id": "node/26683163"
		}, {
			"type": "Feature",
			"properties": {
				"marker-color": "#7e7e7e",
				"marker-size": "medium",
				"marker-symbol": "",
				"@id": "node/26728131",
				"is_in": "Grays, Thurrock, Essex, England, UK",
				"name": "Grays",
				"place": "suburb"
			},
			"geometry": {
				"type": "Point",
				"coordinates": [0.32581329345703125, 51.476785733667775]
			},
			"id": "node/26728131"
		}, {
			"type": "Feature",
			"properties": {
				"@id": "node/26745366",
				"is_in": "Westminster, London",
				"name": "Mayfair",
				"name:he": "מייפייר",
				"name:ru": "Мейфэр",
				"place": "suburb",
				"wikidata": "Q124184",
				"wikipedia": "en:Mayfair"
			},
			"geometry": {
				"type": "Point",
				"coordinates": [-0.1472083, 51.5110777]
			},
			"id": "node/26745366"
		}, {
			"type": "Feature",
			"properties": {
				"marker-color": "#7e7e7e",
				"marker-size": "medium",
				"marker-symbol": "",
				"@id": "node/26745371",
				"name": "Holborn",
				"place": "suburb",
				"wikidata": "Q16247922",
				"wikipedia": "en:St Giles, London"
			},
			"geometry": {
				"type": "Point",
				"coordinates": [-0.12018442153930664, 51.51736907046397]
			},
			"id": "node/26745371"
		}, {
			"type": "Feature",
			"properties": {
				"@id": "node/27364398",
				"is_in": "Haringey, London",
				"name": "Seven Sisters",
				"place": "suburb",
				"wikidata": "Q2639390",
				"wikipedia": "en:Seven Sisters, London"
			},
			"geometry": {
				"type": "Point",
				"coordinates": [-0.0756012, 51.5834664]
			},
			"id": "node/27364398"
		}, {
			"type": "Feature",
			"properties": {
				"@id": "node/27364686",
				"is_in": "Haringey, London",
				"name": "Tottenham",
				"place": "suburb",
				"wikidata": "Q503375",
				"wikipedia": "en:Tottenham"
			},
			"geometry": {
				"type": "Point",
				"coordinates": [-0.0672892, 51.5976955]
			},
			"id": "node/27364686"
		}, {
			"type": "Feature",
			"properties": {
				"@id": "node/27364687",
				"is_in": "Haringey, London",
				"name": "Crouch End",
				"place": "suburb",
				"wikidata": "Q24502",
				"wikipedia": "en:Crouch End"
			},
			"geometry": {
				"type": "Point",
				"coordinates": [-0.1235992, 51.5787402]
			},
			"id": "node/27364687"
		}, {
			"type": "Feature",
			"properties": {
				"@id": "node/27365015",
				"is_in": "Haringey, London",
				"name": "West Green",
				"place": "suburb",
				"wikidata": "Q4019077",
				"wikipedia": "en:West Green, London"
			},
			"geometry": {
				"type": "Point",
				"coordinates": [-0.0898489, 51.5868063]
			},
			"id": "node/27365015"
		}, {
			"type": "Feature",
			"properties": {
				"@id": "node/27365016",
				"is_in": "Hackney, London",
				"name": "Stamford Hill",
				"place": "suburb",
				"wikidata": "Q2716505",
				"wikipedia": "en:Stamford Hill"
			},
			"geometry": {
				"type": "Point",
				"coordinates": [-0.0690402, 51.5707092]
			},
			"id": "node/27365016"
		}, {
			"type": "Feature",
			"properties": {
				"@id": "node/27365017",
				"is_in": "Hackney, London",
				"name": "Upper Clapton",
				"place": "suburb",
				"wikidata": "Q7898566",
				"wikipedia": "en:Upper Clapton"
			},
			"geometry": {
				"type": "Point",
				"coordinates": [-0.0605697, 51.5668384]
			},
			"id": "node/27365017"
		}, {
			"type": "Feature",
			"properties": {
				"@id": "node/27365018",
				"is_in": "Hackney, London",
				"name": "Stoke Newington",
				"place": "suburb",
				"wikidata": "Q2483346",
				"wikipedia": "en:Stoke Newington"
			},
			"geometry": {
				"type": "Point",
				"coordinates": [-0.0772816, 51.5576971]
			},
			"id": "node/27365018"
		}, {
			"type": "Feature",
			"properties": {
				"@id": "node/27365019",
				"is_in": "Hackney, London",
				"name": "Lower Clapton",
				"place": "suburb",
				"wikidata": "Q6693387",
				"wikipedia": "en:Lower Clapton"
			},
			"geometry": {
				"type": "Point",
				"coordinates": [-0.0550912, 51.5546565]
			},
			"id": "node/27365019"
		}, {
			"type": "Feature",
			"properties": {
				"@id": "node/27365020",
				"addr:postcode": "N1",
				"is_in": "Islington, London",
				"name": "Islington",
				"name:ru": "Излингтон",
				"place": "suburb",
				"wikidata": "Q125163",
				"wikipedia": "en:Islington"
			},
			"geometry": {
				"type": "Point",
				"coordinates": [-0.0999051, 51.5384287]
			},
			"id": "node/27365020"
		}, {
			"type": "Feature",
			"properties": {
				"@id": "node/27365022",
				"is_in": "Camden, London",
				"name": "Kentish Town",
				"place": "suburb",
				"wikidata": "Q149782",
				"wikipedia": "en:Kentish Town"
			},
			"geometry": {
				"type": "Point",
				"coordinates": [-0.1425625, 51.5500658]
			},
			"id": "node/27365022"
		}, {
			"type": "Feature",
			"properties": {
				"@id": "node/27365023",
				"is_in": "Camden, London",
				"name": "Gospel Oak",
				"place": "suburb",
				"wikidata": "Q149587",
				"wikipedia": "en:Gospel Oak"
			},
			"geometry": {
				"type": "Point",
				"coordinates": [-0.1517524, 51.5536863]
			},
			"id": "node/27365023"
		}, {
			"type": "Feature",
			"properties": {
				"@id": "node/27365024",
				"is_in": "Tower Hamlets, London",
				"name": "Bethnal Green",
				"place": "suburb",
				"wikidata": "Q124204",
				"wikipedia": "en:Bethnal Green"
			},
			"geometry": {
				"type": "Point",
				"coordinates": [-0.058279037475585944, 51.52682174690637]
			},
			"id": "node/27365024"
		}, {
			"type": "Feature",
			"properties": {
				"@id": "node/27365025",
				"is_in": "Hackney, London",
				"name": "Dalston",
				"place": "town",
				"wikidata": "Q2499366",
				"wikipedia": "en:Dalston"
			},
			"geometry": {
				"type": "Point",
				"coordinates": [-0.07029533386230469, 51.543185724231996]
			},
			"id": "node/27365025"
		}, {
			"type": "Feature",
			"properties": {
				"@id": "node/27365026",
				"is_in": "Hackney, London",
				"name": "Haggerston",
				"place": "suburb",
				"wikidata": "Q2146341",
				"wikipedia": "en:Haggerston"
			},
			"geometry": {
				"type": "Point",
				"coordinates": [-0.072784423828125, 51.53584535270441]
			},
			"id": "node/27365026"
		}, {
			"type": "Feature",
			"properties": {
				"@id": "node/27365028",
				"is_in": "Tower Hamlets, London",
				"name": "Wapping",
				"name:he": "וופינג",
				"place": "suburb",
				"wikidata": "Q124046",
				"wikipedia": "en:Wapping"
			},
			"geometry": {
				"type": "Point",
				"coordinates": [-0.06081104278564453, 51.50612477372582]
			},
			"id": "node/27365028"
		}, {
			"type": "Feature",
			"properties": {
				"@id": "node/27365029",
				"is_in": "Hackney, London",
				"name": "Shoreditch",
				"place": "suburb",
				"wikidata": "Q1027127",
				"wikipedia": "en:Shoreditch"
			},
			"geometry": {
				"type": "Point",
				"coordinates": [-0.0798926, 51.5266694]
			},
			"id": "node/27365029"
		}, {
			"type": "Feature",
			"properties": {
				"@id": "node/27365031",
				"is_in": "Islington, London",
				"name": "Clerkenwell",
				"place": "suburb",
				"wikidata": "Q124129",
				"wikipedia": "en:Clerkenwell"
			},
			"geometry": {
				"type": "Point",
				"coordinates": [-0.10158061981201172, 51.523510863177314]
			},
			"id": "node/27365031"
		}, {
			"type": "Feature",
			"properties": {
				"@id": "node/27365033",
				"is_in": "Camden, London",
				"name": "Bloomsbury",
				"name:ru": "Блумсбери",
				"place": "suburb",
				"wikidata": "Q150120",
				"wikipedia": "en:Bloomsbury"
			},
			"geometry": {
				"type": "Point",
				"coordinates": [-0.1260664, 51.523126]
			},
			"id": "node/27365033"
		}, {
			"type": "Feature",
			"properties": {
				"@id": "node/27365035",
				"is_in": "Southwark, London",
				"name": "Bermondsey",
				"place": "suburb",
				"wikidata": "Q822040",
				"wikipedia": "en:Bermondsey"
			},
			"geometry": {
				"type": "Point",
				"coordinates": [-0.063268, 51.4970125]
			},
			"id": "node/27365035"
		}, {
			"type": "Feature",
			"properties": {
				"@id": "node/27365036",
				"is_in": "Tower Hamlets, London",
				"name": "Millwall",
				"place": "suburb",
				"wikidata": "Q123620",
				"wikipedia": "en:Millwall"
			},
			"geometry": {
				"type": "Point",
				"coordinates": [-0.0212187, 51.4933423]
			},
			"id": "node/27365036"
		}, {
			"type": "Feature",
			"properties": {
				"@id": "node/27365037",
				"is_in": "Southwark, London",
				"name": "Rotherhithe",
				"place": "suburb",
				"wikidata": "Q2886632",
				"wikipedia": "en:Rotherhithe"
			},
			"geometry": {
				"type": "Point",
				"coordinates": [-0.0436321, 51.5002908]
			},
			"id": "node/27365037"
		}, {
			"type": "Feature",
			"properties": {
				"@id": "node/27365038",
				"is_in": "Tower Hamlets, London",
				"name": "Stepney",
				"name:he": "סטפני",
				"place": "suburb",
				"wikidata": "Q123627",
				"wikipedia": "en:Stepney"
			},
			"geometry": {
				"type": "Point",
				"coordinates": [-0.0462189, 51.5174023]
			},
			"id": "node/27365038"
		}, {
			"type": "Feature",
			"properties": {
				"@id": "node/27365039",
				"is_in": "Tower Hamlets, London",
				"name": "Limehouse",
				"place": "suburb",
				"wikidata": "Q123741",
				"wikipedia": "en:Limehouse"
			},
			"geometry": {
				"type": "Point",
				"coordinates": [-0.0351492, 51.5133074]
			},
			"id": "node/27365039"
		}, {
			"type": "Feature",
			"properties": {
				"@id": "node/27365040",
				"is_in": "Isle of Dogs, Tower Hamlets, London, UK",
				"name": "Cubitt Town",
				"place": "suburb",
				"wikidata": "Q122750",
				"wikipedia": "en:Cubitt Town"
			},
			"geometry": {
				"type": "Point",
				"coordinates": [-0.0082433, 51.4936677]
			},
			"id": "node/27365040"
		}, {
			"type": "Feature",
			"properties": {
				"@id": "node/27365041",
				"is_in": "Tower hamlets, London",
				"name": "Blackwall",
				"place": "suburb",
				"wikidata": "Q122767",
				"wikipedia": "en:Blackwall, London"
			},
			"geometry": {
				"type": "Point",
				"coordinates": [-0.0064024, 51.5065004]
			},
			"id": "node/27365041"
		}, {
			"type": "Feature",
			"properties": {
				"@id": "node/27365043",
				"is_in": "Tower Hamlets, London",
				"name": "Poplar",
				"place": "suburb",
				"wikidata": "Q123360",
				"wikipedia": "en:Poplar, London"
			},
			"geometry": {
				"type": "Point",
				"coordinates": [-0.0143883, 51.5111811]
			},
			"id": "node/27365043"
		}, {
			"type": "Feature",
			"properties": {
				"@id": "node/27365044",
				"is_in": "Tower Hamlets, London",
				"name": "Bromley-by-Bow",
				"place": "suburb",
				"wikidata": "Q123616",
				"wikipedia": "en:Bromley-by-Bow"
			},
			"geometry": {
				"type": "Point",
				"coordinates": [-0.010471343994140625, 51.5231103367263]
			},
			"id": "node/27365044"
		}, {
			"type": "Feature",
			"properties": {
				"@id": "node/27365045",
				"is_in": "Tower Hamlets, London",
				"name": "Bow",
				"place": "suburb",
				"wikidata": "Q122607",
				"wikipedia": "en:Bow, London"
			},
			"geometry": {
				"type": "Point",
				"coordinates": [-0.0194816, 51.5283085]
			},
			"id": "node/27365045"
		}, {
			"type": "Feature",
			"properties": {
				"@id": "node/27365046",
				"is_in": "Newham, London",
				"name": "Stratford",
				"name:ru": "Стратфорд",
				"old_name": "Stratford Langthorne",
				"place": "town",
				"population": "98812",
				"wikidata": "Q676136",
				"wikipedia": "en:Stratford, London"
			},
			"geometry": {
				"type": "Point",
				"coordinates": [0.0016369, 51.5406711]
			},
			"id": "node/27365046"
		}, {
			"type": "Feature",
			"properties": {
				"@id": "node/27365049",
				"is_in": "Waltham Forest, London",
				"name": "Leytonstone",
				"place": "suburb",
				"wikidata": "Q1368969",
				"wikipedia": "en:Leytonstone"
			},
			"geometry": {
				"type": "Point",
				"coordinates": [0.008325576782226562, 51.568480912185464]
			},
			"id": "node/27365049"
		}, {
			"type": "Feature",
			"properties": {
				"@id": "node/27365050",
				"is_in": "Waltham Forest, London",
				"name": "Walthamstow",
				"name:ru": "Уолтемстоу",
				"place": "town",
				"wikidata": "Q2321784",
				"wikipedia": "en:Walthamstow"
			},
			"geometry": {
				"type": "Point",
				"coordinates": [-0.018453598022460938, 51.58330994229597]
			},
			"id": "node/27365050"
		}, {
			"type": "Feature",
			"properties": {
				"@id": "node/27365051",
				"name": "Edmonton",
				"place": "suburb",
				"wikidata": "Q1997321",
				"wikipedia": "en:Edmonton, London"
			},
			"geometry": {
				"type": "Point",
				"coordinates": [-0.0659791, 51.6203392]
			},
			"id": "node/27365051"
		}, {
			"type": "Feature",
			"properties": {
				"@id": "node/27365298",
				"is_in": "Islington, London",
				"name": "Upper Holloway",
				"place": "suburb",
				"wikidata": "Q121629",
				"wikipedia": "en:Upper Holloway"
			},
			"geometry": {
				"type": "Point",
				"coordinates": [-0.1338683, 51.5644891]
			},
			"id": "node/27365298"
		}, {
			"type": "Feature",
			"properties": {
				"@id": "node/27365299",
				"is_in": "Islington, London",
				"name": "Highbury",
				"place": "suburb",
				"wikidata": "Q124394",
				"wikipedia": "en:Highbury"
			},
			"geometry": {
				"type": "Point",
				"coordinates": [-0.1027127, 51.5457996]
			},
			"id": "node/27365299"
		}, {
			"type": "Feature",
			"properties": {
				"@id": "node/27365300",
				"is_in": "Islington, London",
				"name": "Barnsbury",
				"place": "suburb",
				"wikidata": "Q122776",
				"wikipedia": "en:Barnsbury"
			},
			"geometry": {
				"type": "Point",
				"coordinates": [-0.114735, 51.5389351]
			},
			"id": "node/27365300"
		}, {
			"type": "Feature",
			"properties": {
				"@id": "node/27365302",
				"is_in": "Greenwich, London, UK",
				"name": "Greenwich",
				"name:be": "Грынвіч",
				"name:eo": "Grenviĉo",
				"name:ru": "Гринвич",
				"place": "town",
				"wikidata": "Q179385",
				"wikipedia": "en:Greenwich"
			},
			"geometry": {
				"type": "Point",
				"coordinates": [-0.006694793701171875, 51.47924473865486]
			},
			"id": "node/27365302"
		}, {
			"type": "Feature",
			"properties": {
				"@id": "node/27365303",
				"is_in": "Greenwich, London",
				"name": "Charlton",
				"place": "suburb",
				"wikidata": "Q1067477",
				"wikipedia": "en:Charlton, London"
			},
			"geometry": {
				"type": "Point",
				"coordinates": [0.0365359, 51.4826053]
			},
			"id": "node/27365303"
		}, {
			"type": "Feature",
			"properties": {
				"@id": "node/27365305",
				"is_in": "Lewisham, London, UK",
				"name": "Lewisham",
				"name:ru": "Льюишам",
				"place": "town",
				"population": "96224",
				"wikidata": "Q6537297",
				"wikipedia": "en:Lewisham"
			},
			"geometry": {
				"type": "Point",
				"coordinates": [-0.0101331, 51.4624325]
			},
			"id": "node/27365305"
		}, {
			"type": "Feature",
			"properties": {
				"@id": "node/27365501",
				"is_in": "Brent, London, UK",
				"name": "Willesden",
				"place": "suburb",
				"wikidata": "Q146702",
				"wikipedia": "en:Willesden"
			},
			"geometry": {
				"type": "Point",
				"coordinates": [-0.2358661, 51.5466216]
			},
			"id": "node/27365501"
		}, {
			"type": "Feature",
			"properties": {
				"@id": "node/27365505",
				"is_in": "London Borough of Brent",
				"name": "Wembley",
				"name:en": "Wembley",
				"name:ru": "Уэмбли",
				"name:zh": "温布利",
				"place": "town",
				"population": "115079",
				"wikidata": "Q146858",
				"wikipedia": "en:Wembley"
			},
			"geometry": {
				"type": "Point",
				"coordinates": [-0.2957562, 51.5531547]
			},
			"id": "node/27365505"
		}, {
			"type": "Feature",
			"properties": {
				"@id": "node/27365506",
				"is_in": "London",
				"name": "Hillingdon",
				"place": "suburb",
				"wikidata": "Q1064180"
			},
			"geometry": {
				"type": "Point",
				"coordinates": [-0.453256, 51.532563]
			},
			"id": "node/27365506"
		}, {
			"type": "Feature",
			"properties": {
				"@id": "node/27365507",
				"name": "Ruislip",
				"place": "town",
				"source": "local_knowledge"
			},
			"geometry": {
				"type": "Point",
				"coordinates": [-0.421600341796875, 51.573762308533105]
			},
			"id": "node/27365507"
		}, {
			"type": "Feature",
			"properties": {
				"@id": "node/27365508",
				"is_in": "Hillingdon,London",
				"is_in:historic_county": "Middlesex",
				"name": "Uxbridge",
				"place": "town",
				"population": "52774",
				"wikidata": "Q3552816"
			},
			"geometry": {
				"type": "Point",
				"coordinates": [-0.4816672, 51.5449509]
			},
			"id": "node/27365508"
		}, {
			"type": "Feature",
			"properties": {
				"@id": "node/27365509",
				"is_in": "Harrow, Greater London, England, United Kingdom",
				"name": "Harrow on the Hill",
				"place": "suburb",
				"wikidata": "Q608406",
				"wikipedia": "en:Harrow on the Hill"
			},
			"geometry": {
				"type": "Point",
				"coordinates": [-0.3406636, 51.5715948]
			},
			"id": "node/27365509"
		}, {
			"type": "Feature",
			"properties": {
				"@id": "node/27365510",
				"name": "Northwood",
				"place": "suburb",
				"wikidata": "Q2090609"
			},
			"geometry": {
				"type": "Point",
				"coordinates": [-0.4205812, 51.6051713]
			},
			"id": "node/27365510"
		}, {
			"type": "Feature",
			"properties": {
				"@id": "node/27365511",
				"name": "Pinner",
				"place": "suburb",
				"wikidata": "Q2453742"
			},
			"geometry": {
				"type": "Point",
				"coordinates": [-0.3770142, 51.5968712]
			},
			"id": "node/27365511"
		}, {
			"type": "Feature",
			"properties": {
				"@id": "node/27365512",
				"is_in": "Harrow, London",
				"name": "Wealdstone",
				"place": "suburb",
				"wikidata": "Q2589602",
				"wikipedia": "en:Wealdstone"
			},
			"geometry": {
				"type": "Point",
				"coordinates": [-0.3294758, 51.5936353]
			},
			"id": "node/27365512"
		}, {
			"type": "Feature",
			"properties": {
				"@id": "node/27365513",
				"is_in": "Hounslow, London, UK",
				"is_in:district": "Hounslow",
				"name": "Brentford",
				"name:ru": "Брентфорд",
				"place": "suburb",
				"wikidata": "Q1013528",
				"wikipedia": "en:Brentford"
			},
			"geometry": {
				"type": "Point",
				"coordinates": [-0.3137540817260742, 51.48512443042995]
			},
			"id": "node/27365513"
		}, {
			"type": "Feature",
			"properties": {
				"@id": "node/27380330",
				"is_in": "Havering,London,England,UK",
				"is_in_postal": "Essex",
				"name": "Romford",
				"place": "town",
				"population": "95894",
				"wikidata": "Q1339305"
			},
			"geometry": {
				"type": "Point",
				"coordinates": [0.1822646, 51.5760462]
			},
			"id": "node/27380330"
		}, {
			"type": "Feature",
			"properties": {
				"@id": "node/27396436",
				"is_in": "Kensington and Chelsea, London",
				"name": "South Kensington",
				"place": "suburb",
				"wikidata": "Q1045096",
				"wikipedia": "en:South Kensington"
			},
			"geometry": {
				"type": "Point",
				"coordinates": [-0.18024444580078125, 51.49762961696847]
			},
			"id": "node/27396436"
		}, {
			"type": "Feature",
			"properties": {
				"@id": "node/27396490",
				"is_in": "Westminster, London, UK",
				"name": "Knightsbridge",
				"name:zh": "骑士桥",
				"place": "suburb",
				"wikidata": "Q26328",
				"wikipedia": "en:Knightsbridge"
			},
			"geometry": {
				"type": "Point",
				"coordinates": [-0.16217708587646482, 51.499953920988176]
			},
			"id": "node/27396490"
		}, {
			"type": "Feature",
			"properties": {
				"@id": "node/27431769",
				"is_in": "Hertfordshire, UK",
				"name": "Cheshunt",
				"name:lt": "Češantas",
				"place": "suburb",
				"wikidata": "Q19790"
			},
			"geometry": {
				"type": "Point",
				"coordinates": [-0.0335908, 51.702052]
			},
			"id": "node/27431769"
		}, {
			"type": "Feature",
			"properties": {
				"@id": "node/27431951",
				"created_by": "JOSM",
				"name": "Potters Bar",
				"place": "town"
			},
			"geometry": {
				"type": "Point",
				"coordinates": [-0.1955649, 51.702588]
			},
			"id": "node/27431951"
		}, {
			"type": "Feature",
			"properties": {
				"@id": "node/27467065",
				"is_in": "London",
				"name": "Fitzrovia",
				"place": "suburb",
				"wikidata": "Q121663",
				"wikipedia": "en:Fitzrovia"
			},
			"geometry": {
				"type": "Point",
				"coordinates": [-0.1410017, 51.5187642]
			},
			"id": "node/27467065"
		}, {
			"type": "Feature",
			"properties": {
				"@id": "node/27467066",
				"is_in": "Westminster, London",
				"name": "Marylebone",
				"name:ru": "Мерилибон",
				"place": "suburb",
				"wikidata": "Q123634",
				"wikipedia": "en:Marylebone"
			},
			"geometry": {
				"type": "Point",
				"coordinates": [-0.15119075775146484, 51.51955884809397]
			},
			"id": "node/27467066"
		}, {
			"type": "Feature",
			"properties": {
				"@id": "node/27467067",
				"is_in": "Kensington and Chelsea, London, UK",
				"name": "Chelsea",
				"name:ru": "Челси",
				"place": "suburb",
				"wikidata": "Q743535",
				"wikipedia": "en:Chelsea, London"
			},
			"geometry": {
				"type": "Point",
				"coordinates": [-0.1682205, 51.4875417]
			},
			"id": "node/27467067"
		}, {
			"type": "Feature",
			"properties": {
				"@id": "node/27467182",
				"is_in": "Kensington and Chelsea, London, UK",
				"name": "Kensington",
				"name:en": "Kensington",
				"name:ru": "Кенсингтон",
				"place": "town",
				"population": "64681",
				"wikidata": "Q288781",
				"wikipedia": "en:Kensington"
			},
			"geometry": {
				"type": "Point",
				"coordinates": [-0.1991229, 51.4989948]
			},
			"id": "node/27467182"
		}, {
			"type": "Feature",
			"properties": {
				"@id": "node/27467184",
				"is_in": "Westminster, London",
				"name": "Paddington",
				"name:he": "פדינגטון",
				"name:ru": "Паддингтон",
				"name:zh": "帕丁頓",
				"place": "suburb",
				"wikidata": "Q124230",
				"wikipedia": "en:Paddington"
			},
			"geometry": {
				"type": "Point",
				"coordinates": [-0.1792423, 51.5163047]
			},
			"id": "node/27467184"
		}, {
			"type": "Feature",
			"properties": {
				"@id": "node/27467185",
				"is_in": "Westminster, London",
				"name": "Maida Vale",
				"place": "suburb",
				"wikidata": "Q122744",
				"wikipedia": "en:Maida Vale"
			},
			"geometry": {
				"type": "Point",
				"coordinates": [-0.1905916, 51.527592]
			},
			"id": "node/27467185"
		}, {
			"type": "Feature",
			"properties": {
				"@id": "node/27481928",
				"is_in": "Hackney, London",
				"name": "De Beauvoir Town",
				"place": "suburb",
				"wikidata": "Q3703907",
				"wikipedia": "en:De Beauvoir Town"
			},
			"geometry": {
				"type": "Point",
				"coordinates": [-0.0850011, 51.539929]
			},
			"id": "node/27481928"
		}, {
			"type": "Feature",
			"properties": {
				"@id": "node/27481929",
				"is_in": "Hackney, London",
				"name": "Homerton",
				"place": "suburb",
				"wikidata": "Q2744319",
				"wikipedia": "en:Homerton"
			},
			"geometry": {
				"type": "Point",
				"coordinates": [-0.0399629, 51.5504686]
			},
			"id": "node/27481929"
		}, {
			"type": "Feature",
			"properties": {
				"@id": "node/27485887",
				"is_in": "Bromley, London",
				"name": "Orpington",
				"place": "town",
				"population": "15311",
				"wikidata": "Q123977",
				"wikipedia": "en:Orpington"
			},
			"geometry": {
				"type": "Point",
				"coordinates": [0.09879112243652344, 51.376280962616]
			},
			"id": "node/27485887"
		}, {
			"type": "Feature",
			"properties": {
				"@id": "node/27485888",
				"is_in": "Bromley, London",
				"name": "Chislehurst",
				"place": "suburb",
				"wikidata": "Q122917",
				"wikipedia": "en:Chislehurst"
			},
			"geometry": {
				"type": "Point",
				"coordinates": [0.0769545, 51.4115718]
			},
			"id": "node/27485888"
		}, {
			"type": "Feature",
			"properties": {
				"@id": "node/27485890",
				"is_in": "London",
				"name": "Thamesmead",
				"place": "suburb",
				"wikidata": "Q146774",
				"wikipedia": "en:Thamesmead"
			},
			"geometry": {
				"type": "Point",
				"coordinates": [0.1148486, 51.4989335]
			},
			"id": "node/27485890"
		}, {
			"type": "Feature",
			"properties": {
				"@id": "node/27485891",
				"is_in": "Bromley, London",
				"name": "St Mary Cray",
				"name:hi": "सेंट मेरी क्रे",
				"place": "suburb",
				"wikidata": "Q123350",
				"wikipedia": "en:St Mary Cray"
			},
			"geometry": {
				"type": "Point",
				"coordinates": [0.11205196380615234, 51.38986040809785]
			},
			"id": "node/27485891"
		}, {
			"type": "Feature",
			"properties": {
				"@id": "node/27485892",
				"is_in": "Bexley, UK",
				"name": "Bexley",
				"place": "suburb",
				"wikidata": "Q146416",
				"wikipedia": "en:Bexley"
			},
			"geometry": {
				"type": "Point",
				"coordinates": [0.150488, 51.4416793]
			},
			"id": "node/27485892"
		}, {
			"type": "Feature",
			"properties": {
				"@id": "node/27485893",
				"name": "Erith",
				"place": "suburb",
				"wikidata": "Q146671",
				"wikipedia": "en:Erith"
			},
			"geometry": {
				"type": "Point",
				"coordinates": [0.17663955688476562, 51.47988619641402]
			},
			"id": "node/27485893"
		}, {
			"type": "Feature",
			"properties": {
				"@id": "node/27485894",
				"name": "Bexleyheath",
				"place": "town",
				"population": "21511",
				"wikidata": "Q146732",
				"wikipedia": "en:Bexleyheath"
			},
			"geometry": {
				"type": "Point",
				"coordinates": [0.1480552, 51.4634854]
			},
			"id": "node/27485894"
		}, {
			"type": "Feature",
			"properties": {
				"@id": "node/27485895",
				"is_in": "Kent, UK",
				"name": "Dartford",
				"name:lt": "Dartfordas",
				"place": "town"
			},
			"geometry": {
				"type": "Point",
				"coordinates": [0.2135344, 51.4492657]
			},
			"id": "node/27485895"
		}, {
			"type": "Feature",
			"properties": {
				"@id": "node/27486048",
				"created_by": "JOSM",
				"name": "Sevenoaks",
				"place": "town"
			},
			"geometry": {
				"type": "Point",
				"coordinates": [0.1914386, 51.2719654]
			},
			"id": "node/27486048"
		}, {
			"type": "Feature",
			"properties": {
				"@id": "node/27486052",
				"name": "Biggin Hill",
				"old_name": "Aperfield",
				"place": "town",
				"wikidata": "Q122241",
				"wikipedia": "en:Biggin Hill"
			},
			"geometry": {
				"type": "Point",
				"coordinates": [0.0327167, 51.3166288]
			},
			"id": "node/27486052"
		}, {
			"type": "Feature",
			"properties": {
				"@id": "node/27486121",
				"is_in": "Newham, London, UK",
				"name": "Canning Town",
				"place": "suburb",
				"wikidata": "Q1792879",
				"wikipedia": "en:Canning Town"
			},
			"geometry": {
				"type": "Point",
				"coordinates": [0.0134976, 51.5181741]
			},
			"id": "node/27486121"
		}, {
			"type": "Feature",
			"properties": {
				"@id": "node/27486122",
				"is_in": "Newham, London",
				"name": "West Ham",
				"note": "Not sure exactyl where west ham is, but its certainly not where this marker use to be.",
				"place": "suburb",
				"wikidata": "Q939617",
				"wikipedia": "en:West Ham"
			},
			"geometry": {
				"type": "Point",
				"coordinates": [0.009698867797851562, 51.53560510235603]
			},
			"id": "node/27486122"
		}, {
			"type": "Feature",
			"properties": {
				"@id": "node/27486150",
				"is_in": "Barking and Dagenham, London",
				"name": "Becontree",
				"place": "suburb",
				"wikidata": "Q2571762",
				"wikipedia": "en:Becontree"
			},
			"geometry": {
				"type": "Point",
				"coordinates": [0.1275378, 51.5492654]
			},
			"id": "node/27486150"
		}, {
			"type": "Feature",
			"properties": {
				"@id": "node/27486181",
				"is_in:country": "UK",
				"is_in:county": "Essex",
				"name": "Rainham",
				"place": "suburb",
				"wikidata": "Q2746137"
			},
			"geometry": {
				"type": "Point",
				"coordinates": [0.1996559, 51.5167284]
			},
			"id": "node/27486181"
		}, {
			"type": "Feature",
			"properties": {
				"@id": "node/27486184",
				"name": "South Hornchurch",
				"place": "suburb",
				"wikidata": "Q7567502"
			},
			"geometry": {
				"type": "Point",
				"coordinates": [0.1893092, 51.5325406]
			},
			"id": "node/27486184"
		}, {
			"type": "Feature",
			"properties": {
				"@id": "node/27529126",
				"is_in": "Haringey, London",
				"name": "Harringay",
				"place": "suburb",
				"wikidata": "Q952515",
				"wikipedia": "en:Harringay"
			},
			"geometry": {
				"type": "Point",
				"coordinates": [-0.099995, 51.5810883]
			},
			"id": "node/27529126"
		}, {
			"type": "Feature",
			"properties": {
				"@id": "node/27529289",
				"is_in": "London Borough of Hounslow, London, UK",
				"name": "Chiswick",
				"name:ru": "Чизик",
				"name:uk": "Чизік",
				"place": "town",
				"population": "34337",
				"wikidata": "Q845015",
				"wikipedia": "en:Chiswick"
			},
			"geometry": {
				"type": "Point",
				"coordinates": [-0.2618694305419922, 51.4796189234441]
			},
			"id": "node/27529289"
		}, {
			"type": "Feature",
			"properties": {
				"@id": "node/27529290",
				"is_in:district": "Hounslow",
				"name": "Isleworth",
				"place": "suburb",
				"wikidata": "Q2432955",
				"wikipedia": "en:Isleworth"
			},
			"geometry": {
				"type": "Point",
				"coordinates": [-0.3293752670288086, 51.471546541834144]
			},
			"id": "node/27529290"
		}, {
			"type": "Feature",
			"properties": {
				"@id": "node/27534857",
				"name": "Hanwell",
				"place": "suburb",
				"wikidata": "Q83593",
				"wikipedia": "en:Hanwell"
			},
			"geometry": {
				"type": "Point",
				"coordinates": [-0.3381584, 51.5089838]
			},
			"id": "node/27534857"
		}, {
			"type": "Feature",
			"properties": {
				"@id": "node/27535022",
				"name": "Greenford",
				"place": "suburb",
				"wikidata": "Q83475"
			},
			"geometry": {
				"type": "Point",
				"coordinates": [-0.3527601, 51.5279378]
			},
			"id": "node/27535022"
		}, {
			"type": "Feature",
			"properties": {
				"@id": "node/27535701",
				"is_in": "Greater London, England, United Kingdom",
				"name": "Harrow",
				"place": "town",
				"population": "80213",
				"wikidata": "Q54961",
				"wikipedia": "en:Harrow, London"
			},
			"geometry": {
				"type": "Point",
				"coordinates": [-0.337475, 51.581091]
			},
			"id": "node/27535701"
		}, {
			"type": "Feature",
			"properties": {
				"@id": "node/27536665",
				"name": "South Harrow",
				"place": "suburb",
				"wikidata": "Q3634311"
			},
			"geometry": {
				"type": "Point",
				"coordinates": [-0.352919, 51.565869]
			},
			"id": "node/27536665"
		}, {
			"type": "Feature",
			"properties": {
				"@id": "node/27553615",
				"is_in": "Newham, London",
				"name": "Plaistow",
				"place": "suburb",
				"wikidata": "Q2407244",
				"wikipedia": "en:Plaistow, Newham"
			},
			"geometry": {
				"type": "Point",
				"coordinates": [0.0249097, 51.5293798]
			},
			"id": "node/27553615"
		}, {
			"type": "Feature",
			"properties": {
				"@id": "node/27553702",
				"is_in": "Lambeth, London, UK",
				"name": "Kennington",
				"place": "suburb",
				"wikidata": "Q146696",
				"wikipedia": "en:Kennington"
			},
			"geometry": {
				"type": "Point",
				"coordinates": [-0.10909080505371092, 51.48346750309851]
			},
			"id": "node/27553702"
		}, {
			"type": "Feature",
			"properties": {
				"@id": "node/27553707",
				"is_in": "Lambeth, London, UK",
				"name": "Vauxhall",
				"place": "suburb",
				"wikidata": "Q146747",
				"wikipedia": "en:Vauxhall"
			},
			"geometry": {
				"type": "Point",
				"coordinates": [-0.12132167816162108, 51.4853114990882]
			},
			"id": "node/27553707"
		}, {
			"type": "Feature",
			"properties": {
				"@id": "node/27553712",
				"is_in": "Southwark, London",
				"name": "Southwark",
				"name:hi": "सदक",
				"phonetic:en": "/ˈsʌðərk/",
				"place": "suburb",
				"wikidata": "Q5273898",
				"wikipedia": "en:Southwark"
			},
			"geometry": {
				"type": "Point",
				"coordinates": [-0.103458, 51.5029222]
			},
			"id": "node/27553712"
		}, {
			"type": "Feature",
			"properties": {
				"@id": "node/27553719",
				"is_in": "Lambeth, London",
				"name": "Lambeth",
				"place": "suburb",
				"wikidata": "Q148349",
				"wikipedia": "en:Lambeth"
			},
			"geometry": {
				"type": "Point",
				"coordinates": [-0.11411190032958984, 51.496801388042684]
			},
			"id": "node/27553719"
		}, {
			"type": "Feature",
			"properties": {
				"@id": "node/27553725",
				"is_in": "Lambeth, London, UK",
				"name": "Stockwell",
				"place": "suburb",
				"wikidata": "Q146891",
				"wikipedia": "en:Stockwell"
			},
			"geometry": {
				"type": "Point",
				"coordinates": [-0.12162208557128906, 51.471546541834144]
			},
			"id": "node/27553725"
		}, {
			"type": "Feature",
			"properties": {
				"@id": "node/27553734",
				"is_in": "Southwark, London, UK",
				"is_in:county": "Southwark",
				"name": "Camberwell",
				"name:zh": "坎伯韦尔",
				"place": "suburb",
				"wikidata": "Q385060",
				"wikipedia": "en:Camberwell"
			},
			"geometry": {
				"type": "Point",
				"coordinates": [-0.0925416, 51.4745706]
			},
			"id": "node/27553734"
		}, {
			"type": "Feature",
			"properties": {
				"@id": "node/27553742",
				"is_in": "Southwark, London, UK",
				"name": "East Dulwich",
				"place": "suburb",
				"wikidata": "Q3305828",
				"wikipedia": "en:East Dulwich"
			},
			"geometry": {
				"type": "Point",
				"coordinates": [-0.0727322, 51.4585551]
			},
			"id": "node/27553742"
		}, {
			"type": "Feature",
			"properties": {
				"@id": "node/27553749",
				"is_in": "Southwark, London, UK",
				"name": "Dulwich",
				"place": "suburb",
				"wikidata": "Q146766",
				"wikipedia": "en:Dulwich"
			},
			"geometry": {
				"type": "Point",
				"coordinates": [-0.0843244, 51.4418786]
			},
			"id": "node/27553749"
		}, {
			"type": "Feature",
			"properties": {
				"@id": "node/27553768",
				"is_in": "Lewisham, London, UK",
				"name": "Forest Hill",
				"place": "suburb",
				"wikidata": "Q1626233",
				"wikipedia": "en:Forest Hill"
			},
			"geometry": {
				"type": "Point",
				"coordinates": [-0.0539538, 51.439108]
			},
			"id": "node/27553768"
		}, {
			"type": "Feature",
			"properties": {
				"@id": "node/27554058",
				"is_in": "London",
				"name": "Deptford",
				"place": "suburb",
				"wikidata": "Q2308650",
				"wikipedia": "en:Deptford"
			},
			"geometry": {
				"type": "Point",
				"coordinates": [-0.0215164, 51.4758453]
			},
			"id": "node/27554058"
		}, {
			"type": "Feature",
			"properties": {
				"@id": "node/27554063",
				"is_in": "Lewisham, London",
				"name": "New Cross Gate",
				"place": "suburb",
				"wikidata": "Q369361",
				"wikipedia": "en:New Cross Gate"
			},
			"geometry": {
				"type": "Point",
				"coordinates": [-0.045284, 51.4746978]
			},
			"id": "node/27554063"
		}, {
			"type": "Feature",
			"properties": {
				"@id": "node/27554266",
				"is_in": "Wandsworth, London, UK",
				"name": "Battersea",
				"name:zh": "巴特锡",
				"place": "suburb",
				"wikidata": "Q1138912",
				"wikipedia": "en:Battersea"
			},
			"geometry": {
				"type": "Point",
				"coordinates": [-0.16788482666015625, 51.47250888748587]
			},
			"id": "node/27554266"
		}, {
			"type": "Feature",
			"properties": {
				"@id": "node/27554267",
				"is_in": "Lambeth, London, UK",
				"is_in:county": "Lambeth",
				"name": "Clapham",
				"place": "town",
				"wikidata": "Q146659",
				"wikipedia": "en:Clapham"
			},
			"geometry": {
				"type": "Point",
				"coordinates": [-0.1388561, 51.4622924]
			},
			"id": "node/27554267"
		}, {
			"type": "Feature",
			"properties": {
				"@id": "node/27729031",
				"name": "Southgate",
				"place": "suburb",
				"wikidata": "Q2678895",
				"wikipedia": "en:Southgate, London"
			},
			"geometry": {
				"type": "Point",
				"coordinates": [-0.123596, 51.6281547]
			},
			"id": "node/27729031"
		}, {
			"type": "Feature",
			"properties": {
				"@id": "node/27729624",
				"is_in": "Haringey, London",
				"name": "Hornsey",
				"place": "suburb",
				"wikidata": "Q2454407",
				"wikipedia": "en:Hornsey"
			},
			"geometry": {
				"type": "Point",
				"coordinates": [-0.1209667, 51.5873645]
			},
			"id": "node/27729624"
		}, {
			"type": "Feature",
			"properties": {
				"@id": "node/27729625",
				"is_in": "Barnet, London",
				"name": "Finchley",
				"place": "suburb",
				"wikidata": "Q150217",
				"wikipedia": "en:Finchley"
			},
			"geometry": {
				"type": "Point",
				"coordinates": [-0.1805587, 51.5973246]
			},
			"id": "node/27729625"
		}, {
			"type": "Feature",
			"properties": {
				"@id": "node/27730054",
				"name": "Mill Hill",
				"place": "suburb",
				"wikidata": "Q149688"
			},
			"geometry": {
				"type": "Point",
				"coordinates": [-0.2330675, 51.6154423]
			},
			"id": "node/27730054"
		}, {
			"type": "Feature",
			"properties": {
				"@id": "node/27731303",
				"is_in": "Redbridge, London",
				"name": "Woodford",
				"place": "suburb",
				"wikidata": "Q15103231",
				"wikipedia": "en:Woodford"
			},
			"geometry": {
				"type": "Point",
				"coordinates": [0.0395776, 51.6051901]
			},
			"id": "node/27731303"
		}, {
			"type": "Feature",
			"properties": {
				"@id": "node/27731306",
				"is_in": "Essex, UK",
				"is_in:district": "Epping Forest",
				"name": "Buckhurst Hill",
				"place": "suburb",
				"wikidata": "Q2684024"
			},
			"geometry": {
				"type": "Point",
				"coordinates": [0.0415283, 51.6268617]
			},
			"id": "node/27731306"
		}, {
			"type": "Feature",
			"properties": {
				"@id": "node/27731564",
				"is_in": "Essex, UK",
				"is_in:district": "Epping Forest",
				"name": "Chigwell",
				"place": "town"
			},
			"geometry": {
				"type": "Point",
				"coordinates": [0.07844924926757812, 51.62036135325299]
			},
			"id": "node/27731564"
		}, {
			"type": "Feature",
			"properties": {
				"@id": "node/27731566",
				"is_in": "Redbridge, London",
				"name": "Barkingside",
				"place": "suburb",
				"wikidata": "Q3634315",
				"wikipedia": "en:Barkingside"
			},
			"geometry": {
				"type": "Point",
				"coordinates": [0.0848694, 51.588311]
			},
			"id": "node/27731566"
		}, {
			"type": "Feature",
			"properties": {
				"@id": "node/27731567",
				"is_in": "Redbridge, London",
				"name": "Newbury Park",
				"place": "suburb",
				"wikidata": "Q2284627",
				"wikipedia": "en:Newbury Park, London"
			},
			"geometry": {
				"type": "Point",
				"coordinates": [0.0922634, 51.5758531]
			},
			"id": "node/27731567"
		}, {
			"type": "Feature",
			"properties": {
				"@id": "node/27731568",
				"is_in": "Redbridge, London",
				"name": "Wanstead",
				"place": "suburb",
				"wikidata": "Q2491351",
				"wikipedia": "en:Wanstead"
			},
			"geometry": {
				"type": "Point",
				"coordinates": [0.0277989, 51.5756739]
			},
			"id": "node/27731568"
		}, {
			"type": "Feature",
			"properties": {
				"@id": "node/27732675",
				"is_in": "Bexley, London",
				"name": "Welling",
				"place": "suburb",
				"wikidata": "Q146779",
				"wikipedia": "en:Welling"
			},
			"geometry": {
				"type": "Point",
				"coordinates": [0.1059038, 51.46529]
			},
			"id": "node/27732675"
		}, {
			"type": "Feature",
			"properties": {
				"@id": "node/27732676",
				"is_in": "Greenwich, London",
				"name": "Plumstead",
				"place": "suburb",
				"wikidata": "Q946533",
				"wikipedia": "en:Plumstead"
			},
			"geometry": {
				"type": "Point",
				"coordinates": [0.09158134460449219, 51.483627853536014]
			},
			"id": "node/27732676"
		}, {
			"type": "Feature",
			"properties": {
				"@id": "node/27732678",
				"is_in": "Greenwich, London, UK",
				"name": "Abbey Wood",
				"place": "suburb",
				"wikidata": "Q147104",
				"wikipedia": "en:Abbey Wood"
			},
			"geometry": {
				"type": "Point",
				"coordinates": [0.1140504, 51.487621]
			},
			"id": "node/27732678"
		}, {
			"type": "Feature",
			"properties": {
				"@id": "node/28296776",
				"is_in": "Bromley, London",
				"name": "Penge",
				"place": "suburb",
				"wikidata": "Q124007",
				"wikipedia": "en:Penge"
			},
			"geometry": {
				"type": "Point",
				"coordinates": [-0.0534213, 51.4146841]
			},
			"id": "node/28296776"
		}, {
			"type": "Feature",
			"properties": {
				"@id": "node/29141200",
				"name": "Redhill",
				"place": "town",
				"wikidata": "Q1851095",
				"wikipedia": "en:Redhill, Surrey"
			},
			"geometry": {
				"type": "Point",
				"coordinates": [-0.1682816, 51.2404691]
			},
			"id": "node/29141200"
		}, {
			"type": "Feature",
			"properties": {
				"@id": "node/29174788",
				"is_in": "Grays, Thurrock, Essex, England, UK",
				"name": "West Thurrock",
				"place": "suburb",
				"wikidata": "Q971550"
			},
			"geometry": {
				"type": "Point",
				"coordinates": [0.2721259, 51.47712]
			},
			"id": "node/29174788"
		}, {
			"type": "Feature",
			"properties": {
				"@id": "node/29369448",
				"name": "Swanley",
				"place": "town",
				"source": "survey"
			},
			"geometry": {
				"type": "Point",
				"coordinates": [0.1777022, 51.3956935]
			},
			"id": "node/29369448"
		}, {
			"type": "Feature",
			"properties": {
				"@id": "node/29402048",
				"is_in": "Lambeth, London, UK",
				"name": "Herne Hill",
				"place": "suburb",
				"wikidata": "Q146553",
				"wikipedia": "en:Herne Hill"
			},
			"geometry": {
				"type": "Point",
				"coordinates": [-0.1001002, 51.4554407]
			},
			"id": "node/29402048"
		}, {
			"type": "Feature",
			"properties": {
				"@id": "node/29402049",
				"is_in": "Lambeth, London, UK",
				"name": "Tulse Hill",
				"place": "suburb",
				"wikidata": "Q146843",
				"wikipedia": "en:Tulse Hill"
			},
			"geometry": {
				"type": "Point",
				"coordinates": [-0.1020591, 51.4412109]
			},
			"id": "node/29402049"
		}, {
			"type": "Feature",
			"properties": {
				"@id": "node/30738531",
				"is_in": "Richmond upon Thames, London",
				"name": "Ham",
				"name:hi": "हैम",
				"place": "suburb",
				"wikidata": "Q5643819",
				"wikipedia": "en:Ham, London"
			},
			"geometry": {
				"type": "Point",
				"coordinates": [-0.3092987, 51.4347641]
			},
			"id": "node/30738531"
		}, {
			"type": "Feature",
			"properties": {
				"marker-color": "#7e7e7e",
				"marker-size": "medium",
				"marker-symbol": "",
				"@id": "node/30759430",
				"name": "Sudbury",
				"place": "suburb",
				"wikidata": "Q146261"
			},
			"geometry": {
				"type": "Point",
				"coordinates": [-0.32486915588378906, 51.55674227897659]
			},
			"id": "node/30759430"
		}, {
			"type": "Feature",
			"properties": {
				"@id": "node/31000778",
				"is_in": "Sutton, Greater London, UK",
				"name": "Carshalton",
				"place": "suburb",
				"wikidata": "Q2220276",
				"wikipedia": "en:Carshalton"
			},
			"geometry": {
				"type": "Point",
				"coordinates": [-0.1610857, 51.3657883]
			},
			"id": "node/31000778"
		}, {
			"type": "Feature",
			"properties": {
				"@id": "node/31036372",
				"is_in:district": "Hounslow",
				"name": "Heston",
				"place": "suburb",
				"wikidata": "Q2571386"
			},
			"geometry": {
				"type": "Point",
				"coordinates": [-0.3719561, 51.4854573]
			},
			"id": "node/31036372"
		}, {
			"type": "Feature",
			"properties": {
				"@id": "node/31036373",
				"is_in:district": "Hounslow",
				"name": "Osterley",
				"place": "suburb",
				"wikidata": "Q2137632"
			},
			"geometry": {
				"type": "Point",
				"coordinates": [-0.3520726, 51.4810984]
			},
			"id": "node/31036373"
		}, {
			"type": "Feature",
			"properties": {
				"@id": "node/31036374",
				"is_in": "London Borough of Hounslow",
				"name": "Hounslow",
				"place": "town",
				"population": "66292",
				"wikidata": "Q2022317"
			},
			"geometry": {
				"type": "Point",
				"coordinates": [-0.3613471, 51.4686132]
			},
			"id": "node/31036374"
		}, {
			"type": "Feature",
			"properties": {
				"@id": "node/31424254",
				"name": "Harmondsworth",
				"place": "suburb",
				"wikidata": "Q2230788"
			},
			"geometry": {
				"type": "Point",
				"coordinates": [-0.4755435, 51.4889317]
			},
			"id": "node/31424254"
		}, {
			"type": "Feature",
			"properties": {
				"@id": "node/31425699",
				"name": "West Drayton",
				"place": "suburb",
				"wikidata": "Q7984991"
			},
			"geometry": {
				"type": "Point",
				"coordinates": [-0.4662704, 51.503513]
			},
			"id": "node/31425699"
		}, {
			"type": "Feature",
			"properties": {
				"@id": "node/31922291",
				"is_in": "Lambeth, London, UK",
				"name": "Streatham Hill",
				"place": "suburb",
				"wikidata": "Q146667",
				"wikipedia": "en:Streatham Hill"
			},
			"geometry": {
				"type": "Point",
				"coordinates": [-0.1222891, 51.4454502]
			},
			"id": "node/31922291"
		}, {
			"type": "Feature",
			"properties": {
				"@id": "node/33382361",
				"is_in": "Newham, London",
				"name": "North Woolwich",
				"place": "suburb",
				"wikidata": "Q2246577",
				"wikipedia": "en:North Woolwich"
			},
			"geometry": {
				"type": "Point",
				"coordinates": [0.064154, 51.5004071]
			},
			"id": "node/33382361"
		}, {
			"type": "Feature",
			"properties": {
				"@id": "node/33499702",
				"name": "Brownswood Park",
				"place": "suburb"
			},
			"geometry": {
				"type": "Point",
				"coordinates": [-0.0972619, 51.5647805]
			},
			"id": "node/33499702"
		}, {
			"type": "Feature",
			"properties": {
				"@id": "node/33758152",
				"is_in": "Sutton,London,UK",
				"name": "Beddington",
				"place": "suburb",
				"wikidata": "Q4437783",
				"wikipedia": "en:Beddington"
			},
			"geometry": {
				"type": "Point",
				"coordinates": [-0.1323928, 51.3719875]
			},
			"id": "node/33758152"
		}, {
			"type": "Feature",
			"properties": {
				"@id": "node/33758228",
				"is_in": "Sutton, Greater London, UK",
				"name": "Wallington",
				"place": "suburb",
				"wikidata": "Q2509310",
				"wikipedia": "en:Wallington, London"
			},
			"geometry": {
				"type": "Point",
				"coordinates": [-0.1495621, 51.357945]
			},
			"id": "node/33758228"
		}, {
			"type": "Feature",
			"properties": {
				"@id": "node/36489724",
				"is_in:district": "Hounslow",
				"name": "Lampton",
				"place": "suburb",
				"wikidata": "Q6482670"
			},
			"geometry": {
				"type": "Point",
				"coordinates": [-0.3641365, 51.4776251]
			},
			"id": "node/36489724"
		}, {
			"type": "Feature",
			"properties": {
				"@id": "node/41031645",
				"name": "Harold Wood",
				"place": "suburb",
				"wikidata": "Q1998477"
			},
			"geometry": {
				"type": "Point",
				"coordinates": [0.2310497, 51.5936326]
			},
			"id": "node/41031645"
		}, {
			"type": "Feature",
			"properties": {
				"@id": "node/41045184",
				"is_in": "Romford,Essex,England,UK",
				"name": "Harold Hill",
				"place": "suburb",
				"wikidata": "Q2176897"
			},
			"geometry": {
				"type": "Point",
				"coordinates": [0.2201549, 51.6049]
			},
			"id": "node/41045184"
		}, {
			"type": "Feature",
			"properties": {
				"@id": "node/45365899",
				"is_in": "Hornchurch,Havering,Essex,England,UK",
				"name": "Ardleigh Green",
				"place": "suburb",
				"wikidata": "Q2014212"
			},
			"geometry": {
				"type": "Point",
				"coordinates": [0.2209904, 51.5841911]
			},
			"id": "node/45365899"
		}, {
			"type": "Feature",
			"properties": {
				"@id": "node/45378448",
				"is_in": "Hornchurch,Havering,Essex,England,UK",
				"name": "Emerson Park",
				"place": "suburb",
				"wikidata": "Q1902832"
			},
			"geometry": {
				"type": "Point",
				"coordinates": [0.223239, 51.5714963]
			},
			"id": "node/45378448"
		}, {
			"type": "Feature",
			"properties": {
				"@id": "node/45479715",
				"is_in": "Surrey, UK",
				"name": "Egham",
				"place": "town",
				"wikidata": "Q746681",
				"wikipedia": "en:Egham"
			},
			"geometry": {
				"type": "Point",
				"coordinates": [-0.5473085, 51.4312585]
			},
			"id": "node/45479715"
		}, {
			"type": "Feature",
			"properties": {
				"@id": "node/52006668",
				"name": "Oxted",
				"place": "town",
				"source": "npe",
				"wikidata": "Q2189348",
				"wikipedia": "en:Oxted"
			},
			"geometry": {
				"type": "Point",
				"coordinates": [-0.0041977, 51.2566507]
			},
			"id": "node/52006668"
		}, {
			"type": "Feature",
			"properties": {
				"@id": "node/52706783",
				"is_in": "Romford,Havering,Essex,England,UK",
				"name": "Collier Row",
				"place": "suburb",
				"wikidata": "Q2683785"
			},
			"geometry": {
				"type": "Point",
				"coordinates": [0.16376495361328125, 51.59733439153138]
			},
			"id": "node/52706783"
		}, {
			"type": "Feature",
			"properties": {
				"@id": "node/56236733",
				"is_in": "Romford,Havering,Essex,England,UK",
				"name": "Gidea Park",
				"place": "suburb",
				"wikidata": "Q2545813"
			},
			"geometry": {
				"type": "Point",
				"coordinates": [0.2059524, 51.5811818]
			},
			"id": "node/56236733"
		}, {
			"type": "Feature",
			"properties": {
				"@id": "node/59193109",
				"is_in:district": "Richmond",
				"name": "Whitton",
				"place": "suburb",
				"wikidata": "Q7996944"
			},
			"geometry": {
				"type": "Point",
				"coordinates": [-0.3579759, 51.4511693]
			},
			"id": "node/59193109"
		}, {
			"type": "Feature",
			"properties": {
				"@id": "node/59842030",
				"is_in": "London Borough of Hounslow",
				"name": "Cranford",
				"place": "suburb",
				"wikidata": "Q5182098"
			},
			"geometry": {
				"type": "Point",
				"coordinates": [-0.4096772, 51.4806709]
			},
			"id": "node/59842030"
		}, {
			"type": "Feature",
			"properties": {
				"@id": "node/63805934",
				"is_in": "Croydon, England",
				"name": "Selsdon",
				"place": "suburb",
				"wikidata": "Q669505"
			},
			"geometry": {
				"type": "Point",
				"coordinates": [-0.0607688, 51.3443067]
			},
			"id": "node/63805934"
		}, {
			"type": "Feature",
			"properties": {
				"@id": "node/64653632",
				"is_in": "Lewisham, London",
				"name": "Sydenham",
				"place": "town",
				"wikidata": "Q2104233",
				"wikipedia": "en:Sydenham"
			},
			"geometry": {
				"type": "Point",
				"coordinates": [-0.0523877, 51.4267658]
			},
			"id": "node/64653632"
		}, {
			"type": "Feature",
			"properties": {
				"@id": "node/88374730",
				"is_in": "Croydon, England",
				"name": "Kenley",
				"place": "suburb",
				"wikidata": "Q6389431"
			},
			"geometry": {
				"type": "Point",
				"coordinates": [-0.1037854, 51.3227524]
			},
			"id": "node/88374730"
		}, {
			"type": "Feature",
			"properties": {
				"@id": "node/88374952",
				"is_in": "Croydon, England",
				"name": "Purley",
				"place": "suburb",
				"wikidata": "Q2118905"
			},
			"geometry": {
				"type": "Point",
				"coordinates": [-0.115893, 51.3385156]
			},
			"id": "node/88374952"
		}, {
			"type": "Feature",
			"properties": {
				"@id": "node/88375798",
				"is_in": "Surrey, England",
				"name": "Warlingham",
				"place": "town",
				"wikidata": "Q3062919",
				"wikipedia": "en:Warlingham"
			},
			"geometry": {
				"type": "Point",
				"coordinates": [-0.0557157, 51.309559]
			},
			"id": "node/88375798"
		}, {
			"type": "Feature",
			"properties": {
				"@id": "node/88376040",
				"is_in": "Surrey, England",
				"name": "Whyteleafe",
				"place": "suburb",
				"wikidata": "Q1610387"
			},
			"geometry": {
				"type": "Point",
				"coordinates": [-0.079236, 51.3110566]
			},
			"id": "node/88376040"
		}, {
			"type": "Feature",
			"properties": {
				"@id": "node/94176427",
				"is_in": "Surrey, England",
				"name": "Caterham",
				"place": "town",
				"wikidata": "Q1996975",
				"wikipedia": "en:Caterham"
			},
			"geometry": {
				"type": "Point",
				"coordinates": [-0.0771032, 51.2819693]
			},
			"id": "node/94176427"
		}, {
			"type": "Feature",
			"properties": {
				"@id": "node/105539532",
				"is_in": "Croydon, London",
				"name": "South Norwood",
				"place": "suburb",
				"wikidata": "Q2265962",
				"wikipedia": "en:South Norwood"
			},
			"geometry": {
				"type": "Point",
				"coordinates": [-0.0768216, 51.3980951]
			},
			"id": "node/105539532"
		}, {
			"type": "Feature",
			"properties": {
				"@id": "node/106227330",
				"is_in": "Bromley, London",
				"name": "West Wickham",
				"place": "suburb",
				"wikidata": "Q124021",
				"wikipedia": "en:West Wickham"
			},
			"geometry": {
				"type": "Point",
				"coordinates": [-0.0148762, 51.3759744]
			},
			"id": "node/106227330"
		}, {
			"type": "Feature",
			"properties": {
				"@id": "node/123921330",
				"is_in": "Bromley, London, UK",
				"name": "Beckenham",
				"place": "suburb",
				"population": "56668",
				"wikidata": "Q123372",
				"wikipedia": "en:Beckenham"
			},
			"geometry": {
				"type": "Point",
				"coordinates": [-0.0303183, 51.4070938]
			},
			"id": "node/123921330"
		}, {
			"type": "Feature",
			"properties": {
				"@id": "node/128562066",
				"is_in": "Croydon, England, UK",
				"name": "Coulsdon",
				"place": "town",
				"wikidata": "Q2463831"
			},
			"geometry": {
				"type": "Point",
				"coordinates": [-0.1393506, 51.3199716]
			},
			"id": "node/128562066"
		}, {
			"type": "Feature",
			"properties": {
				"@id": "node/130823478",
				"is_in": "Bromley, London",
				"name": "Elmers End",
				"place": "suburb",
				"wikidata": "Q1076782",
				"wikipedia": "en:Elmers End"
			},
			"geometry": {
				"type": "Point",
				"coordinates": [-0.0416048, 51.3994675]
			},
			"id": "node/130823478"
		}, {
			"type": "Feature",
			"properties": {
				"@id": "node/138187664",
				"is_in": "Croydon, London",
				"name": "Shirley",
				"place": "suburb",
				"wikidata": "Q7498666",
				"wikipedia": "en:Shirley, London"
			},
			"geometry": {
				"type": "Point",
				"coordinates": [-0.0466335, 51.3749243]
			},
			"id": "node/138187664"
		}, {
			"type": "Feature",
			"properties": {
				"@id": "node/158758387",
				"is_in": "Surrey",
				"name": "Ashford",
				"place": "town",
				"wikidata": "Q725270",
				"wikipedia": "en:Ashford, Surrey"
			},
			"geometry": {
				"type": "Point",
				"coordinates": [-0.4619837, 51.4330238]
			},
			"id": "node/158758387"
		}, {
			"type": "Feature",
			"properties": {
				"@id": "node/183613836",
				"is_in": "Upminster",
				"name": "Cranham",
				"place": "suburb",
				"population": "12500",
				"wikidata": "Q2514068",
				"wikipedia": "en:Cranham"
			},
			"geometry": {
				"type": "Point",
				"coordinates": [0.2679097, 51.5614882]
			},
			"id": "node/183613836"
		}, {
			"type": "Feature",
			"properties": {
				"@id": "node/207141595",
				"is_in": "Southwark, London, UK",
				"name": "Peckham",
				"place": "suburb",
				"population": "71552",
				"wikidata": "Q2690524",
				"wikipedia": "en:Peckham"
			},
			"geometry": {
				"type": "Point",
				"coordinates": [-0.0699321, 51.4734122]
			},
			"id": "node/207141595"
		}, {
			"type": "Feature",
			"properties": {
				"@id": "node/215809322",
				"is_in": "Harrow, London, UK",
				"name": "Rayners Lane",
				"place": "suburb",
				"wikidata": "Q7299331"
			},
			"geometry": {
				"type": "Point",
				"coordinates": [-0.3703002, 51.5767143]
			},
			"id": "node/215809322"
		}, {
			"type": "Feature",
			"properties": {
				"@id": "node/221170550",
				"name": "Waltham Abbey",
				"place": "suburb",
				"wikidata": "Q2462706"
			},
			"geometry": {
				"type": "Point",
				"coordinates": [-0.0009449, 51.6892068]
			},
			"id": "node/221170550"
		}, {
			"type": "Feature",
			"properties": {
				"@id": "node/243814259",
				"is_in": "Hackney, London",
				"name": "Hoxton",
				"place": "suburb",
				"wikidata": "Q1998354",
				"wikipedia": "en:Hoxton"
			},
			"geometry": {
				"type": "Point",
				"coordinates": [-0.086078, 51.5323935]
			},
			"id": "node/243814259"
		}, {
			"type": "Feature",
			"properties": {
				"@id": "node/249674698",
				"is_in": "Merton, London, UK",
				"name": "Mitcham",
				"place": "suburb",
				"wikidata": "Q687798",
				"wikipedia": "en:Mitcham"
			},
			"geometry": {
				"type": "Point",
				"coordinates": [-0.1640787, 51.4058006]
			},
			"id": "node/249674698"
		}, {
			"type": "Feature",
			"properties": {
				"@id": "node/253101009",
				"created_by": "JOSM",
				"name": "Worton",
				"place": "suburb"
			},
			"geometry": {
				"type": "Point",
				"coordinates": [-0.3463595, 51.4647068]
			},
			"id": "node/253101009"
		}, {
			"type": "Feature",
			"properties": {
				"@id": "node/255747342",
				"name": "Ponders End",
				"place": "suburb",
				"wikidata": "Q7227719"
			},
			"geometry": {
				"type": "Point",
				"coordinates": [-0.0403754, 51.6443511]
			},
			"id": "node/255747342"
		}, {
			"type": "Feature",
			"properties": {
				"@id": "node/255747617",
				"name": "Cockfosters",
				"place": "suburb",
				"wikidata": "Q149680"
			},
			"geometry": {
				"type": "Point",
				"coordinates": [-0.1493822, 51.6476356]
			},
			"id": "node/255747617"
		}, {
			"type": "Feature",
			"properties": {
				"@id": "node/255755993",
				"name": "Winchmore Hill",
				"place": "suburb",
				"wikidata": "Q2438674"
			},
			"geometry": {
				"type": "Point",
				"coordinates": [-0.1033617, 51.6333948]
			},
			"id": "node/255755993"
		}, {
			"type": "Feature",
			"properties": {
				"@id": "node/255756095",
				"is_in": "Enfield, London",
				"name": "Palmers Green",
				"place": "suburb",
				"wikidata": "Q2887044",
				"wikipedia": "en:Palmers Green"
			},
			"geometry": {
				"type": "Point",
				"coordinates": [-0.1127378, 51.6222544]
			},
			"id": "node/255756095"
		}, {
			"type": "Feature",
			"properties": {
				"@id": "node/266798614",
				"is_in": "Sutton, London, UK",
				"name": "Worcester Park",
				"place": "suburb",
				"source": "local knowledge",
				"wikidata": "Q8034205",
				"wikipedia": "en:Worcester Park"
			},
			"geometry": {
				"type": "Point",
				"coordinates": [-0.2416023, 51.3783998]
			},
			"id": "node/266798614"
		}, {
			"type": "Feature",
			"properties": {
				"@id": "node/266799034",
				"is_in": "Epsom and Ewell, Surrey",
				"name": "Stoneleigh",
				"place": "suburb",
				"source": "local knowledge",
				"wikidata": "Q7619258",
				"wikipedia": "en:Stoneleigh, Surrey"
			},
			"geometry": {
				"type": "Point",
				"coordinates": [-0.2462611, 51.3627372]
			},
			"id": "node/266799034"
		}, {
			"type": "Feature",
			"properties": {
				"@id": "node/269611584",
				"name": "Hadley Wood",
				"place": "suburb",
				"wikidata": "Q5637990"
			},
			"geometry": {
				"type": "Point",
				"coordinates": [-0.1735167, 51.6671608]
			},
			"id": "node/269611584"
		}, {
			"type": "Feature",
			"properties": {
				"marker-color": "#7e7e7e",
				"marker-size": "medium",
				"marker-symbol": "",
				"@id": "node/281041529",
				"is_in": "Camden, London, UK",
				"name": "Euston",
				"place": "suburb",
				"wikidata": "Q149573",
				"wikipedia": "en:Somers Town, London"
			},
			"geometry": {
				"type": "Point",
				"coordinates": [-0.13565540313720703, 51.52911786359545]
			},
			"id": "node/281041529"
		}, {
			"type": "Feature",
			"properties": {
				"@id": "node/297805659",
				"name": "Hampton",
				"place": "suburb",
				"wikidata": "Q766353"
			},
			"geometry": {
				"type": "Point",
				"coordinates": [-0.3691409, 51.4150272]
			},
			"id": "node/297805659"
		}, {
			"type": "Feature",
			"properties": {
				"@id": "node/309776226",
				"is_in": "Hertfordshire, UK",
				"name": "Borehamwood",
				"name:lt": "Boramvudas",
				"place": "town"
			},
			"geometry": {
				"type": "Point",
				"coordinates": [-0.2706506, 51.6604863]
			},
			"id": "node/309776226"
		}, {
			"type": "Feature",
			"properties": {
				"@id": "node/314729225",
				"name": "Watford Heath",
				"place": "suburb",
				"source": "www.npemap.org.uk",
				"uk_postcode_centroid": "WD19"
			},
			"geometry": {
				"type": "Point",
				"coordinates": [-0.385174, 51.640054]
			},
			"id": "node/314729225"
		}, {
			"type": "Feature",
			"properties": {
				"@id": "node/362908707",
				"is_in": "Newham, London",
				"name": "Little Ilford",
				"place": "suburb",
				"wikidata": "Q1851955",
				"wikipedia": "en:Little Ilford"
			},
			"geometry": {
				"type": "Point",
				"coordinates": [0.0625225, 51.550298]
			},
			"id": "node/362908707"
		}, {
			"type": "Feature",
			"properties": {
				"@id": "node/364663239",
				"is_in": "Harrow, London",
				"name": "Harrow Weald",
				"place": "suburb",
				"wikidata": "Q5666599",
				"wikipedia": "en:Harrow Weald"
			},
			"geometry": {
				"type": "Point",
				"coordinates": [-0.3404854, 51.6047861]
			},
			"id": "node/364663239"
		}, {
			"type": "Feature",
			"properties": {
				"@id": "node/364663370",
				"is_in": "Harrow, London",
				"name": "Belmont",
				"place": "suburb",
				"wikidata": "Q2964782",
				"wikipedia": "en:Belmont, Harrow"
			},
			"geometry": {
				"type": "Point",
				"coordinates": [-0.3181008, 51.601225]
			},
			"id": "node/364663370"
		}, {
			"type": "Feature",
			"properties": {
				"@id": "node/364664007",
				"is_in": "Harrow",
				"name": "Stanmore",
				"place": "suburb",
				"wikidata": "Q2279685"
			},
			"geometry": {
				"type": "Point",
				"coordinates": [-0.3095111, 51.6174205]
			},
			"id": "node/364664007"
		}, {
			"type": "Feature",
			"properties": {
				"@id": "node/364664640",
				"is_in": "Harrow",
				"name": "Kenton",
				"place": "suburb",
				"wikidata": "Q146364",
				"wikipedia": "en:Kenton"
			},
			"geometry": {
				"type": "Point",
				"coordinates": [-0.3134253, 51.5846627]
			},
			"id": "node/364664640"
		}, {
			"type": "Feature",
			"properties": {
				"@id": "node/364844511",
				"is_in": "Brent, London",
				"name": "Kingsbury",
				"place": "suburb",
				"wikidata": "Q147127",
				"wikipedia": "en:Kingsbury"
			},
			"geometry": {
				"type": "Point",
				"coordinates": [-0.2804994, 51.5854367]
			},
			"id": "node/364844511"
		}, {
			"type": "Feature",
			"properties": {
				"@id": "node/380743163",
				"is_in": "Harrow",
				"name": "Hatch End",
				"place": "suburb",
				"wikidata": "Q3633577"
			},
			"geometry": {
				"type": "Point",
				"coordinates": [-0.3735477, 51.6084403]
			},
			"id": "node/380743163"
		}, {
			"type": "Feature",
			"properties": {
				"marker-color": "#7e7e7e",
				"marker-size": "medium",
				"marker-symbol": "",
				"@id": "node/383729579",
				"name": "Old Street",
				"place": "suburb",
				"source": "local knowledge",
				"wikidata": "Q124252"
			},
			"geometry": {
				"type": "Point",
				"coordinates": [-0.09076595306396483, 51.5253799400354]
			},
			"id": "node/383729579"
		}, {
			"type": "Feature",
			"properties": {
				"@id": "node/385147398",
				"is_in": "Wandsworth, London, UK",
				"name": "Roehampton",
				"place": "suburb",
				"wikidata": "Q3057456",
				"wikipedia": "en:Roehampton"
			},
			"geometry": {
				"type": "Point",
				"coordinates": [-0.2412672, 51.4498773]
			},
			"id": "node/385147398"
		}, {
			"type": "Feature",
			"properties": {
				"@id": "node/385147523",
				"is_in": "Richmond, London, UK",
				"name": "East Sheen",
				"place": "suburb",
				"wikidata": "Q2530557",
				"wikipedia": "en:East Sheen"
			},
			"geometry": {
				"type": "Point",
				"coordinates": [-0.267094, 51.4623706]
			},
			"id": "node/385147523"
		}, {
			"type": "Feature",
			"properties": {
				"@id": "node/385148479",
				"is_in": "Richmond, London, UK",
				"name": "Mortlake",
				"name:zh": "摩特雷克",
				"place": "suburb",
				"wikidata": "Q2456238",
				"wikipedia": "en:Mortlake"
			},
			"geometry": {
				"type": "Point",
				"coordinates": [-0.2655601501464844, 51.467536549774074]
			},
			"id": "node/385148479"
		}, {
			"type": "Feature",
			"properties": {
				"@id": "node/390315780",
				"is_in": "Wandsworth, London, UK",
				"name": "Southfields",
				"place": "suburb",
				"wikidata": "Q3492335",
				"wikipedia": "en:Southfields"
			},
			"geometry": {
				"type": "Point",
				"coordinates": [-0.2064713, 51.4447618]
			},
			"id": "node/390315780"
		}, {
			"type": "Feature",
			"properties": {
				"@id": "node/399607277",
				"alt_name": "Camden",
				"is_in": "London, UK",
				"name": "Camden Town",
				"name:he": "קמדן טאון",
				"place": "town",
				"population": "24538",
				"wikidata": "Q149836",
				"wikipedia": "en:Camden Town"
			},
			"geometry": {
				"type": "Point",
				"coordinates": [-0.1395604, 51.5423045]
			},
			"id": "node/399607277"
		}, {
			"type": "Feature",
			"properties": {
				"@id": "node/409700968",
				"is_in": "Southwark, London, UK",
				"name": "Nunhead",
				"place": "suburb",
				"wikidata": "Q2236241",
				"wikipedia": "en:Nunhead"
			},
			"geometry": {
				"type": "Point",
				"coordinates": [-0.0535056, 51.4615309]
			},
			"id": "node/409700968"
		}, {
			"type": "Feature",
			"properties": {
				"@id": "node/423749783",
				"is_in": "Merton, London, UK",
				"name": "Wimbledon",
				"place": "town",
				"population": "58449",
				"wikidata": "Q736742",
				"wikipedia": "en:Wimbledon, London"
			},
			"geometry": {
				"type": "Point",
				"coordinates": [-0.2174492, 51.4253863]
			},
			"id": "node/423749783"
		}, {
			"type": "Feature",
			"properties": {
				"@id": "node/430826269",
				"is_in": "London Borough of Richmond upon Thames",
				"name": "Petersham",
				"place": "suburb",
				"wikidata": "Q2323537"
			},
			"geometry": {
				"type": "Point",
				"coordinates": [-0.3052934, 51.4436913]
			},
			"id": "node/430826269"
		}, {
			"type": "Feature",
			"properties": {
				"@id": "node/431507207",
				"is_in": "London Borough of Greenwich",
				"name": "Blackheath",
				"place": "suburb",
				"wikidata": "Q880861"
			},
			"geometry": {
				"type": "Point",
				"coordinates": [0.0085393, 51.4663492]
			},
			"id": "node/431507207"
		}, {
			"type": "Feature",
			"properties": {
				"@id": "node/431524383",
				"is_in": "Croydon",
				"name": "Thornton Heath",
				"place": "suburb",
				"wikidata": "Q2123194"
			},
			"geometry": {
				"type": "Point",
				"coordinates": [-0.099602, 51.3988709]
			},
			"id": "node/431524383"
		}, {
			"type": "Feature",
			"properties": {
				"@id": "node/447843121",
				"is_in": "Barnet, London, UK",
				"name": "Cricklewood",
				"place": "suburb",
				"wikidata": "Q149830"
			},
			"geometry": {
				"type": "Point",
				"coordinates": [-0.2157507, 51.5566986]
			},
			"id": "node/447843121"
		}, {
			"type": "Feature",
			"properties": {
				"@id": "node/450524790",
				"is_in": "Southwark",
				"name": "South Bank",
				"place": "suburb",
				"wikidata": "Q154322"
			},
			"geometry": {
				"type": "Point",
				"coordinates": [-0.11136531829833984, 51.50444189675956]
			},
			"id": "node/450524790"
		}, {
			"type": "Feature",
			"properties": {
				"@id": "node/529458254",
				"name": "North Finchley",
				"place": "suburb",
				"wikidata": "Q150209"
			},
			"geometry": {
				"type": "Point",
				"coordinates": [-0.1756922, 51.6124905]
			},
			"id": "node/529458254"
		}, {
			"type": "Feature",
			"properties": {
				"@id": "node/565457860",
				"is_in": "Sothwark, London",
				"name": "Borough",
				"place": "suburb"
			},
			"geometry": {
				"type": "Point",
				"coordinates": [-0.093802, 51.5022704]
			},
			"id": "node/565457860"
		}, {
			"type": "Feature",
			"properties": {
				"@id": "node/568572880",
				"name": "Brockley",
				"place": "suburb",
				"wikidata": "Q2216536"
			},
			"geometry": {
				"type": "Point",
				"coordinates": [-0.0360868, 51.4578328]
			},
			"id": "node/568572880"
		}, {
			"type": "Feature",
			"properties": {
				"@id": "node/568590483",
				"name": "Honor Oak",
				"place": "suburb",
				"wikidata": "Q13636553"
			},
			"geometry": {
				"type": "Point",
				"coordinates": [-0.0399142, 51.4499075]
			},
			"id": "node/568590483"
		}, {
			"type": "Feature",
			"properties": {
				"@id": "node/568590491",
				"name": "Ladywell",
				"place": "suburb",
				"wikidata": "Q6470814"
			},
			"geometry": {
				"type": "Point",
				"coordinates": [-0.0203239, 51.4565877]
			},
			"id": "node/568590491"
		}, {
			"type": "Feature",
			"properties": {
				"@id": "node/591984822",
				"name": "Snaresbrook",
				"place": "suburb",
				"wikidata": "Q2612131"
			},
			"geometry": {
				"type": "Point",
				"coordinates": [0.0228777, 51.5831734]
			},
			"id": "node/591984822"
		}, {
			"type": "Feature",
			"properties": {
				"@id": "node/596780321",
				"alt_name": "Beacontree Heath",
				"is_in": "Dagenham",
				"name": "Becontree Heath",
				"note": "http://www.openstreetmap.org/note/737035",
				"place": "suburb",
				"wikidata": "Q1800604"
			},
			"geometry": {
				"type": "Point",
				"coordinates": [0.1478793, 51.5610299]
			},
			"id": "node/596780321"
		}, {
			"type": "Feature",
			"properties": {
				"@id": "node/596796167",
				"is_in": "Greater London",
				"name": "Dagenham",
				"place": "suburb",
				"wikidata": "Q1075299"
			},
			"geometry": {
				"type": "Point",
				"coordinates": [0.1481142, 51.5413271]
			},
			"id": "node/596796167"
		}, {
			"type": "Feature",
			"properties": {
				"@id": "node/597337167",
				"is_in": "Iver",
				"name": "Richings Park",
				"place": "suburb",
				"source": "local_knowledge"
			},
			"geometry": {
				"type": "Point",
				"coordinates": [-0.5076939, 51.5073322]
			},
			"id": "node/597337167"
		}, {
			"type": "Feature",
			"properties": {
				"@id": "node/597379779",
				"is_in": "Dagenham",
				"name": "Scrattons Farm",
				"place": "suburb"
			},
			"geometry": {
				"type": "Point",
				"coordinates": [0.1324402, 51.5304104]
			},
			"id": "node/597379779"
		}, {
			"type": "Feature",
			"properties": {
				"@id": "node/597379918",
				"is_in": "Barking",
				"name": "Thames View",
				"place": "suburb",
				"wikidata": "Q16979683"
			},
			"geometry": {
				"type": "Point",
				"coordinates": [0.1043626, 51.5286041]
			},
			"id": "node/597379918"
		}, {
			"type": "Feature",
			"properties": {
				"@id": "node/597399332",
				"is_in": "Greater London",
				"name": "Hornchurch",
				"place": "suburb",
				"wikidata": "Q1656021"
			},
			"geometry": {
				"type": "Point",
				"coordinates": [0.2212279, 51.5613235]
			},
			"id": "node/597399332"
		}, {
			"type": "Feature",
			"properties": {
				"@id": "node/597405972",
				"is_in": "Romford",
				"name": "Chadwell Heath",
				"place": "suburb",
				"wikidata": "Q1058698"
			},
			"geometry": {
				"type": "Point",
				"coordinates": [0.1297842, 51.5700474]
			},
			"id": "node/597405972"
		}, {
			"type": "Feature",
			"properties": {
				"@id": "node/597405975",
				"is_in": "Chadwell Heath",
				"name": "Marks Gate",
				"place": "suburb",
				"wikidata": "Q6771383"
			},
			"geometry": {
				"type": "Point",
				"coordinates": [0.1348482, 51.5863692]
			},
			"id": "node/597405975"
		}, {
			"type": "Feature",
			"properties": {
				"@id": "node/597406950",
				"is_in": "Goodmayes",
				"name": "Little Heath",
				"place": "suburb",
				"wikidata": "Q6650297"
			},
			"geometry": {
				"type": "Point",
				"coordinates": [0.1171352, 51.5808369]
			},
			"id": "node/597406950"
		}, {
			"type": "Feature",
			"properties": {
				"@id": "node/597407039",
				"is_in": "Ilford",
				"name": "Goodmayes",
				"place": "suburb",
				"wikidata": "Q1942855"
			},
			"geometry": {
				"type": "Point",
				"coordinates": [0.11166572570800781, 51.56234518646433]
			},
			"id": "node/597407039"
		}, {
			"type": "Feature",
			"properties": {
				"@id": "node/597407482",
				"is_in": "Ilford",
				"name": "Seven Kings",
				"place": "suburb",
				"wikidata": "Q957351"
			},
			"geometry": {
				"type": "Point",
				"coordinates": [0.0951492, 51.5657811]
			},
			"id": "node/597407482"
		}, {
			"type": "Feature",
			"properties": {
				"@id": "node/597413690",
				"is_in": "Greater London;Redbridge, London",
				"name": "Ilford",
				"name:ru": "Илфорд",
				"place": "town",
				"population": "168168",
				"wikidata": "Q2297044",
				"wikipedia": "en:Ilford"
			},
			"geometry": {
				"type": "Point",
				"coordinates": [0.0711669, 51.5582734]
			},
			"id": "node/597413690"
		}, {
			"type": "Feature",
			"properties": {
				"@id": "node/626591740",
				"name": "Balham",
				"place": "suburb",
				"wikidata": "Q804946",
				"wikipedia": "en:Balham"
			},
			"geometry": {
				"type": "Point",
				"coordinates": [-0.1503643, 51.4456449]
			},
			"id": "node/626591740"
		}, {
			"type": "Feature",
			"properties": {
				"@id": "node/701379193",
				"is_in": "Kingston Upon Thames;London",
				"is_in_postal": "Surrey",
				"name": "Kingston upon Thames",
				"place": "town",
				"population": "43013",
				"todo": "check - this is probably duplicate but I can't find a place node nearby",
				"wikidata": "Q2321706"
			},
			"geometry": {
				"type": "Point",
				"coordinates": [-0.3062621, 51.4096275]
			},
			"id": "node/701379193"
		}, {
			"type": "Feature",
			"properties": {
				"@id": "node/705682847",
				"is_in": "Upminster",
				"name": "Corbets Tey",
				"place": "suburb"
			},
			"geometry": {
				"type": "Point",
				"coordinates": [0.2513598, 51.5429422]
			},
			"id": "node/705682847"
		}, {
			"type": "Feature",
			"properties": {
				"@id": "node/716816528",
				"name": "Westbourne Green",
				"place": "suburb",
				"source": "os_street_view",
				"wikidata": "Q123998"
			},
			"geometry": {
				"type": "Point",
				"coordinates": [-0.1905973, 51.5187353]
			},
			"id": "node/716816528"
		}, {
			"type": "Feature",
			"properties": {
				"@id": "node/746815313",
				"name": "Elm Park",
				"place": "suburb",
				"source": "os_street_view",
				"wikidata": "Q2165074"
			},
			"geometry": {
				"type": "Point",
				"coordinates": [0.2021983, 51.544841]
			},
			"id": "node/746815313"
		}, {
			"type": "Feature",
			"properties": {
				"@id": "node/748823935",
				"is_in": "Greenwich, London",
				"name": "Woolwich",
				"name:ru": "Вулидж",
				"place": "town",
				"population": "71526",
				"wikidata": "Q1006232",
				"wikipedia": "en:Woolwich"
			},
			"geometry": {
				"type": "Point",
				"coordinates": [0.0623335, 51.4826696]
			},
			"id": "node/748823935"
		}, {
			"type": "Feature",
			"properties": {
				"@id": "node/878184976",
				"is_in": "Watford",
				"name": "Carpenders Park",
				"place": "suburb",
				"wikidata": "Q3660658"
			},
			"geometry": {
				"type": "Point",
				"coordinates": [-0.380024, 51.6294667]
			},
			"id": "node/878184976"
		}, {
			"type": "Feature",
			"properties": {
				"@id": "node/878184986",
				"is_in": "Watford",
				"name": "South Oxhey",
				"place": "suburb",
				"wikidata": "Q1613044"
			},
			"geometry": {
				"type": "Point",
				"coordinates": [-0.3907957, 51.6248579]
			},
			"id": "node/878184986"
		}, {
			"type": "Feature",
			"properties": {
				"@id": "node/1123412172",
				"name": "High Barnet",
				"place": "suburb"
			},
			"geometry": {
				"type": "Point",
				"coordinates": [-0.2005407, 51.6531493]
			},
			"id": "node/1123412172"
		}, {
			"type": "Feature",
			"properties": {
				"@id": "node/1139095970",
				"is_in": "Merton, London, UK",
				"name": "Motspur Park",
				"place": "suburb",
				"wikidata": "Q6918601"
			},
			"geometry": {
				"type": "Point",
				"coordinates": [-0.24401664733886716, 51.391011931141186]
			},
			"id": "node/1139095970"
		}, {
			"type": "Feature",
			"properties": {
				"@id": "node/1224753025",
				"name": "East Barnet",
				"place": "suburb",
				"wikidata": "Q150212"
			},
			"geometry": {
				"type": "Point",
				"coordinates": [-0.1628235, 51.6416813]
			},
			"id": "node/1224753025"
		}, {
			"type": "Feature",
			"properties": {
				"@id": "node/1224754174",
				"name": "New Barnet",
				"place": "suburb",
				"wikidata": "Q149691"
			},
			"geometry": {
				"type": "Point",
				"coordinates": [-0.171006, 51.6495724]
			},
			"id": "node/1224754174"
		}, {
			"type": "Feature",
			"properties": {
				"@id": "node/1224759066",
				"name": "Brunswick Park",
				"place": "suburb",
				"wikidata": "Q149665"
			},
			"geometry": {
				"type": "Point",
				"coordinates": [-0.1481899, 51.6262191]
			},
			"id": "node/1224759066"
		}, {
			"type": "Feature",
			"properties": {
				"@id": "node/1224759110",
				"name": "New Southgate",
				"place": "suburb",
				"wikidata": "Q149669"
			},
			"geometry": {
				"type": "Point",
				"coordinates": [-0.1378851, 51.6171653]
			},
			"id": "node/1224759110"
		}, {
			"type": "Feature",
			"properties": {
				"@id": "node/1224760874",
				"name": "Oakleigh Park",
				"place": "suburb",
				"wikidata": "Q149856"
			},
			"geometry": {
				"type": "Point",
				"coordinates": [-0.1686559, 51.6374989]
			},
			"id": "node/1224760874"
		}, {
			"type": "Feature",
			"properties": {
				"@id": "node/1228088100",
				"name": "Norbury",
				"place": "suburb",
				"wikidata": "Q389071"
			},
			"geometry": {
				"type": "Point",
				"coordinates": [-0.12080669403076173, 51.41328685810004]
			},
			"id": "node/1228088100"
		}, {
			"type": "Feature",
			"properties": {
				"@id": "node/1313310991",
				"name": "North Kensington",
				"place": "suburb",
				"wikidata": "Q3635112"
			},
			"geometry": {
				"type": "Point",
				"coordinates": [-0.2106959, 51.5196647]
			},
			"id": "node/1313310991"
		}, {
			"type": "Feature",
			"properties": {
				"@id": "node/1341681399",
				"is_in": "Newham, London, UK",
				"name": "Beckton",
				"place": "suburb",
				"wikidata": "Q3417728"
			},
			"geometry": {
				"type": "Point",
				"coordinates": [0.0594257, 51.5160797]
			},
			"id": "node/1341681399"
		}, {
			"type": "Feature",
			"properties": {
				"@id": "node/1341723818",
				"is_in": "Newham, London, UK",
				"name": "Cyprus",
				"place": "suburb",
				"wikidata": "Q5200432"
			},
			"geometry": {
				"type": "Point",
				"coordinates": [0.0670869, 51.5091962]
			},
			"id": "node/1341723818"
		}, {
			"type": "Feature",
			"properties": {
				"@id": "node/1341723823",
				"is_in": "Newham, London, UK",
				"name": "Upton Park",
				"place": "suburb",
				"wikidata": "Q7899393",
				"wikipedia": "en:Upton Park, London"
			},
			"geometry": {
				"type": "Point",
				"coordinates": [0.034673, 51.5369171]
			},
			"id": "node/1341723823"
		}, {
			"type": "Feature",
			"properties": {
				"@id": "node/1341723836",
				"is_in": "Newham, London, UK",
				"name": "Forest Gate",
				"place": "suburb",
				"wikidata": "Q1656032",
				"wikipedia": "en:Forest Gate"
			},
			"geometry": {
				"type": "Point",
				"coordinates": [0.023860931396484375, 51.549964506565914]
			},
			"id": "node/1341723836"
		}, {
			"type": "Feature",
			"properties": {
				"@id": "node/1341723842",
				"is_in": "Newham, London, UK",
				"name": "Manor Park",
				"place": "suburb",
				"wikidata": "Q2005010",
				"wikipedia": "en:Manor Park, London"
			},
			"geometry": {
				"type": "Point",
				"coordinates": [0.0476391, 51.5506867]
			},
			"id": "node/1341723842"
		}, {
			"type": "Feature",
			"properties": {
				"@id": "node/1355670856",
				"name": "Rylands Estate",
				"place": "suburb"
			},
			"geometry": {
				"type": "Point",
				"coordinates": [0.1583019, 51.5314455]
			},
			"id": "node/1355670856"
		}, {
			"type": "Feature",
			"properties": {
				"@id": "node/1370329100",
				"name": "Long Ditton",
				"place": "suburb",
				"wikidata": "Q6672525"
			},
			"geometry": {
				"type": "Point",
				"coordinates": [-0.3199839, 51.384162]
			},
			"id": "node/1370329100"
		}, {
			"type": "Feature",
			"properties": {
				"@id": "node/1370329112",
				"name": "Hinchley Wood",
				"place": "suburb",
				"wikidata": "Q5765741"
			},
			"geometry": {
				"type": "Point",
				"coordinates": [-0.3389149, 51.3745705]
			},
			"id": "node/1370329112"
		}, {
			"type": "Feature",
			"properties": {
				"@id": "node/1452965570",
				"name": "Stroud Green",
				"place": "suburb",
				"wikidata": "Q3976133"
			},
			"geometry": {
				"type": "Point",
				"coordinates": [-0.1114972, 51.5716864]
			},
			"id": "node/1452965570"
		}, {
			"type": "Feature",
			"properties": {
				"@id": "node/1569016949",
				"name": "Kilburn",
				"place": "town",
				"population": "16989",
				"wikidata": "Q150214",
				"wikipedia": "en:Kilburn, London"
			},
			"geometry": {
				"type": "Point",
				"coordinates": [-0.1979358, 51.541882]
			},
			"id": "node/1569016949"
		}, {
			"type": "Feature",
			"properties": {
				"@id": "node/1588340047",
				"is_in": "Surrey,UK",
				"name": "Epsom",
				"name:lt": "Epsomas",
				"place": "town",
				"wikidata": "Q993164",
				"wikipedia": "en:Epsom"
			},
			"geometry": {
				"type": "Point",
				"coordinates": [-0.2678212, 51.3326098]
			},
			"id": "node/1588340047"
		}, {
			"type": "Feature",
			"properties": {
				"@id": "node/1588532106",
				"is_in": "Surrey, UK",
				"name": "Cobham",
				"place": "town",
				"wikidata": "Q1006990",
				"wikipedia": "en:Cobham, Surrey"
			},
			"geometry": {
				"type": "Point",
				"coordinates": [-0.4120821, 51.3300079]
			},
			"id": "node/1588532106"
		}, {
			"type": "Feature",
			"properties": {
				"@id": "node/1598181905",
				"name": "Weybridge",
				"place": "town",
				"wikidata": "Q1754096",
				"wikipedia": "en:Weybridge"
			},
			"geometry": {
				"type": "Point",
				"coordinates": [-0.4549297, 51.3727175]
			},
			"id": "node/1598181905"
		}, {
			"type": "Feature",
			"properties": {
				"@id": "node/1604718476",
				"is_in": "Essex, England, GB",
				"is_in:continent": "Europe",
				"is_in:country": "United Kingdom",
				"is_in:country_code": "GB",
				"is_in:county": "Essex",
				"loc_name": "Boredtown",
				"name": "Brentwood",
				"name:ru": "Брентвуд",
				"place": "town",
				"population": "49463",
				"wikidata": "Q909993",
				"wikipedia": "en:Brentwood, Essex"
			},
			"geometry": {
				"type": "Point",
				"coordinates": [0.3028663, 51.6204094]
			},
			"id": "node/1604718476"
		}, {
			"type": "Feature",
			"properties": {
				"@id": "node/1620269020",
				"description": "http://en.wikipedia.org/wiki/Epping",
				"is_in": "Essex, England, UK",
				"is_in:district": "Epping Forest",
				"name": "Epping",
				"place": "town"
			},
			"geometry": {
				"type": "Point",
				"coordinates": [0.1094154, 51.6978777]
			},