[
  {
    "name": "Acton Town",
    "lat": 51.5025,
    "lng": -0.278126
  },
  {
    "name": "Aldgate",
    "lat": 51.51394,
    "lng": -0.07537
  },
  {
    "name": "Aldgate East",
    "lat": 51.51514,
    "lng": -0.07178
  },
  {
    "name": "Alperton",
    "lat": 51.54097,
    "lng": -0.30061
  },
  {
    "name": "Amersham",
    "lat": 51.67435,
    "lng": -0.60732
  },
  {
    "name": "Angel",
    "lat": 51.53253,
    "lng": -0.10579
  },
  {
    "name": "Archway",
    "lat": 51.56536,
    "lng": -0.13474
  },
  {
    "name": "Arnos Grove",
    "lat": 51.61625,
    "lng": -0.13355
  },
  {
    "name": "Arsenal",
    "lat": 51.55847,
    "lng": -0.10561
  },
  {
    "name": "Baker Street",
    "lat": 51.52265,
    "lng": -0.15704
  },
  {
    "name": "Baker Street",
    "lat": 51.522236,
    "lng": -0.15708
  },
  {
    "name": "Balham",
    "lat": 51.44344113,
    "lng": -0.152945844
  },
  {
    "name": "Bank",
    "lat": 51.5134047,
    "lng": -0.08905843
  },
  {
    "name": "Barbican",
    "lat": 51.520865,
    "lng": -0.097758
  },
  {
    "name": "Barking",
    "lat": 51.54079,
    "lng": 0.08018
  },
  {
    "name": "Barkingside",
    "lat": 51.58543,
    "lng": 0.08854
  },
  {
    "name": "Barons Court",
    "lat": 51.490281,
    "lng": -0.21434
  },
  {
    "name": "Bayswater",
    "lat": 51.51224,
    "lng": -0.187569
  },
  {
    "name": "Becontree",
    "lat": 51.54029,
    "lng": 0.1262
  },
  {
    "name": "Belsize Park",
    "lat": 51.55036,
    "lng": -0.16465
  },
  {
    "name": "Bermondsey",
    "lat": 51.49813,
    "lng": -0.0635
  },
  {
    "name": "Bethnal Green",
    "lat": 51.52718,
    "lng": -0.05504
  },
  {
    "name": "Blackfriars",
    "lat": 51.5114403,
    "lng": -0.1041905
  },
  {
    "name": "Blackhorse Road",
    "lat": 51.58698,
    "lng": -0.04104
  },
  {
    "name": "Bond Street",
    "lat": 51.51461,
    "lng": -0.14897
  },
  {
    "name": "Borough",
    "lat": 51.50095,
    "lng": -0.09446
  },
  {
    "name": "Boston Manor",
    "lat": 51.495371,
    "lng": -0.325573
  },
  {
    "name": "Bounds Green",
    "lat": 51.607,
    "lng": -0.12418
  },
  {
    "name": "Bow Road",
    "lat": 51.52709,
    "lng": -0.02482
  },
  {
    "name": "Brent Cross",
    "lat": 51.57693,
    "lng": -0.21414
  },
  {
    "name": "Brixton",
    "lat": 51.46239,
    "lng": -0.115421
  },
  {
    "name": "Bromley-by-Bow",
    "lat": 51.52466,
    "lng": -0.01282
  },
  {
    "name": "Buckhurst Hill",
    "lat": 51.62611,
    "lng": 0.04705
  },
  {
    "name": "Burnt Oak",
    "lat": 51.603,
    "lng": -0.26427
  },
  {
    "name": "Caledonian Road",
    "lat": 51.5485,
    "lng": -0.11802
  },
  {
    "name": "Caledonian Road & Barnesbury",
    "lat": 51.54326,
    "lng": -0.11544
  },
  {
    "name": "Camden Town",
    "lat": 51.5393,
    "lng": -0.14316
  },
  {
    "name": "Canada Water",
    "lat": 51.49787,
    "lng": -0.04967
  },
  {
    "name": "Canary Wharf",
    "lat": 51.50362,
    "lng": -0.01987
  },
  {
    "name": "Cannon Street",
    "lat": 51.51141,
    "lng": -0.09047
  },
  {
    "name": "Canons Park",
    "lat": 51.6081,
    "lng": -0.29487
  },
  {
    "name": "Chalfont & Latimer",
    "lat": 51.66822,
    "lng": -0.56053
  },
  {
    "name": "Chalk Farm",
    "lat": 51.5439,
    "lng": -0.15384
  },
  {
    "name": "Chancery Lane",
    "lat": 51.51836,
    "lng": -0.11115
  },
  {
    "name": "Charing Cross",
    "lat": 51.507749,
    "lng": -0.127330
  },
  {
    "name": "Chesham",
    "lat": 51.70522733,
    "lng": -0.610986426
  },
  {
    "name": "Chigwell",
    "lat": 51.61795,
    "lng": 0.07511
  },
  {
    "name": "Chiswick Park",
    "lat": 51.49466,
    "lng": -0.26866
  },
  {
    "name": "Chorleywood",
    "lat": 51.65429872,
    "lng": -0.518373353
  },
  {
    "name": "City Thameslink",
    "lat": 51.51416,
    "lng": -0.10335
  },
  {
    "name": "Clapham Common",
    "lat": 51.46156,
    "lng": -0.13802
  },
  {
    "name": "Clapham North",
    "lat": 51.46522,
    "lng": -0.1295
  },
  {
    "name": "Clapham South",
    "lat": 51.45292257,
    "lng": -0.147562148
  },
  {
    "name": "Cockfosters",
    "lat": 51.65117,
    "lng": -0.14811
  },
  {
    "name": "Colindale",
    "lat": 51.59556,
    "lng": -0.24996
  },
  {
    "name": "Colliers Wood",
    "lat": 51.41823649,
    "lng": -0.17800983
  },
  {
    "name": "Covent Garden",
    "lat": 51.51308,
    "lng": -0.12427
  },
  {
    "name": "Croxley",
    "lat": 51.64733268,
    "lng": -0.441479115
  },
  {
    "name": "Dagenham East",
    "lat": 51.54396,
    "lng": 0.16439
  },
  {
    "name": "Dagenham Heathway",
    "lat": 51.54173,
    "lng": 0.14543
  },
  {
    "name": "Debden",
    "lat": 51.64535,
    "lng": 0.08364
  },
  {
    "name": "Dollis Hill",
    "lat": 51.5525,
    "lng": -0.23884
  },
  {
    "name": "Ealing Broadway",
    "lat": 51.51482,
    "lng": -0.30118
  },
  {
    "name": "Ealing Common",
    "lat": 51.50997,
    "lng": -0.28825
  },
  {
    "name": "Earl's Court",
    "lat": 51.491521,
    "lng": -0.193906
  },
  {
    "name": "East Acton",
    "lat": 51.51753,
    "lng": -0.24827
  },
  {
    "name": "East Finchley",
    "lat": 51.5872974705487,
    "lng": -0.16495632312818
  },
  {
    "name": "East Ham",
    "lat": 51.53931,
    "lng": 0.0526
  },
  {
    "name": "East Putney",
    "lat": 51.459015,
    "lng": -0.211138
  },
  {
    "name": "Eastcote",
    "lat": 51.57676,
    "lng": -0.39629
  },
  {
    "name": "Edgware",
    "lat": 51.61385,
    "lng": -0.27515
  },
  {
    "name": "Edgware Road",
    "lat": 51.51956,
    "lng": -0.169068
  },
  {
    "name": "Edgware Road",
    "lat": 51.520195,
    "lng": -0.166986
  },
  {
    "name": "Elephant & Castle",
    "lat": 51.49467,
    "lng": -0.10047
  },
  {
    "name": "Elm Park",
    "lat": 51.54969,
    "lng": 0.19779
  },
  {
    "name": "Embankment",
    "lat": 51.50717,
    "lng": -0.12195
  },
  {
    "name": "Epping",
    "lat": 51.69365,
    "lng": 0.11495
  },
  {
    "name": "Euston",
    "lat": 51.52774,
    "lng": -0.13303
  },
  {
    "name": "Euston Square",
    "lat": 51.52584,
    "lng": -0.1357
  },
  {
    "name": "Fairlop",
    "lat": 51.59634,
    "lng": 0.09125
  },
  {
    "name": "Farringdon",
    "lat": 51.520362948,
    "lng": -0.105126482
  },
  {
    "name": "Farringdon",
    "lat": 51.520086,
    "lng": -0.104789
  },
  {
    "name": "Finchley Central",
    "lat": 51.60102,
    "lng": -0.1924
  },
  {
    "name": "Finchley Road",
    "lat": 51.546701,
    "lng": -0.179867
  },
  {
    "name": "Finsbury Park",
    "lat": 51.56498,
    "lng": -0.10543
  },
  {
    "name": "Fulham Broadway",
    "lat": 51.48033,
    "lng": -0.19488
  },
  {
    "name": "Gants Hill",
    "lat": 51.57649,
    "lng": 0.06637
  },
  {
    "name": "Gloucester Road",
    "lat": 51.49408266,
    "lng": -0.17295341
  },
  {
    "name": "Golders Green",
    "lat": 51.57249,
    "lng": -0.1941
  },
  {
    "name": "Goldhawk Road",
    "lat": 51.501248,
    "lng": -0.226776
  },
  {
    "name": "Goodge Street",
    "lat": 51.5206,
    "lng": -0.13441
  },
  {
    "name": "Grange Hill",
    "lat": 51.61326,
    "lng": 0.09258
  },
  {
    "name": "Great Portland Street",
    "lat": 51.52391,
    "lng": -0.14397
  },
  {
    "name": "Greenford",
    "lat": 51.542346,
    "lng": -0.345903
  },
  {
    "name": "Gunnersbury",
    "lat": 51.49126844,
    "lng": -0.275554312
  },
  {
    "name": "Green Park",
    "lat": 51.50674,
    "lng": -0.14276
  },
  {
    "name": "Hainault",
    "lat": 51.60288,
    "lng": 0.09332
  },
  {
    "name": "Hammersmith",
    "lat": 51.492328,
    "lng": -0.222825
  },
  {
    "name": "Hammersmith",
    "lat": 51.494190748,
    "lng": -0.225964953
  },
  {
    "name": "Hampstead",
    "lat": 51.55645,
    "lng": -0.17851
  },
  {
    "name": "Hanger Lane",
    "lat": 51.53,
    "lng": -0.2929
  },
  {
    "name": "Harlesden",
    "lat": 51.53628278,
    "lng": -0.257622488
  },
  {
    "name": "Harrow & Wealdstone",
    "lat": 51.59205973,
    "lng": -0.334725352
  },
  {
    "name": "Harrow-on-the-Hill",
    "lat": 51.579335,
    "lng": -0.337052
  },
  {
    "name": "Hatton Cross",
    "lat": 51.466988,
    "lng": -0.423035
  },
  {
    "name": "Heathrow Terminals 1-2-3",
    "lat": 51.4712899,
    "lng": -0.4527438
  },
  {
    "name": "Heathrow Terminal 4",
    "lat": 51.4594777,
    "lng": -0.44689658
  },
  {
    "name": "Hendon Central",
    "lat": 51.58346,
    "lng": -0.22653
  },
  {
    "name": "High Barnet",
    "lat": 51.6506519031751,
    "lng": -0.194138165994553
  },
  {
    "name": "High Street Kensington",
    "lat": 51.5003459144,
    "lng": -0.192351664
  },
  {
    "name": "Highbury & Islington",
    "lat": 51.54502,
    "lng": -0.10752
  },
  {
    "name": "Highgate",
    "lat": 51.57722,
    "lng": -0.14553
  },
  {
    "name": "Hillingdon",
    "lat": 51.55364,
    "lng": -0.45062
  },
  {
    "name": "Holborn",
    "lat": 51.51711,
    "lng": -0.12055
  },
  {
    "name": "Holland Park",
    "lat": 51.50722,
    "lng": -0.20553
  },
  {
    "name": "Holloway Road",
    "lat": 51.5529,
    "lng": -0.11278
  },
  {
    "name": "Homerton",
    "lat": 51.5471,
    "lng": -0.04323
  },
  {
    "name": "Hornchurch",
    "lat": 51.55387,
    "lng": 0.21797
  },
  {
    "name": "Hounslow Central",
    "lat": 51.47129,
    "lng": -0.365853
  },
  {
    "name": "Hounslow East",
    "lat": 51.47354,
    "lng": -0.356
  },
  {
    "name": "Hounslow West",
    "lat": 51.473689,
    "lng": -0.386471
  },
  {
    "name": "Hyde Park Corner",
    "lat": 51.50313,
    "lng": -0.15278
  },
  {
    "name": "Ickenham",
    "lat": 51.56147,
    "lng": -0.44257
  },
  {
    "name": "Kennington",
    "lat": 51.48823,
    "lng": -0.10587
  },
  {
    "name": "Kensal Green",
    "lat": 51.53060655,
    "lng": -0.224253545
  },
  {
    "name": "Kensington",
    "lat": 51.49675,
    "lng": -0.20931
  },
  {
    "name": "Kentish Town",
    "lat": 51.55046,
    "lng": -0.14067
  },
  {
    "name": "Kenton",
    "lat": 51.58173809,
    "lng": -0.316870809
  },
  {
    "name": "Kew Gardens",
    "lat": 51.47725641,
    "lng": -0.284980014
  },
  {
    "name": "Kilburn",
    "lat": 51.5471715,
    "lng": -0.205002
  },
  {
    "name": "Kilburn Park",
    "lat": 51.53495818,
    "lng": -0.193963023
  },
  {
    "name": "King's Cross St.Pancras",
    "lat": 51.53057,
    "lng": -0.12399
  },
  {
    "name": "King's Cross Thameslink",
    "lat": 51.5308,
    "lng": -0.12044
  },
  {
    "name": "Kingsbury",
    "lat": 51.58422,
    "lng": -0.2788
  },
  {
    "name": "Knightsbridge",
    "lat": 51.50169,
    "lng": -0.1603
  },
  {
    "name": "Ladbroke Grove",
    "lat": 51.5173,
    "lng": -0.21114
  },
  {
    "name": "Lambeth North",
    "lat": 51.49894,
    "lng": -0.11216
  },
  {
    "name": "Lancaster Gate",
    "lat": 51.512083,
    "lng": -0.175067
  },
  {
    "name": "Latimer Road",
    "lat": 51.513125,
    "lng": -0.218428
  },
  {
    "name": "Leicester Square",
    "lat": 51.51148,
    "lng": -0.12849
  },
  {
    "name": "Leyton",
    "lat": 51.556483,
    "lng": -0.005669
  },
  {
    "name": "Leytonstone",
    "lat": 51.56828,
    "lng": 0.00739
  },
  {
    "name": "Liverpool Street",
    "lat": 51.517675,
    "lng": -0.082458
  },
  {
    "name": "London Bridge",
    "lat": 51.505353,
    "lng": -0.084826
  },
  {
    "name": "Loughton",
    "lat": 51.6417,
    "lng": 0.05583
  },
  {
    "name": "Maida Vale",
    "lat": 51.52989409,
    "lng": -0.185888819
  },
  {
    "name": "Manor House",
    "lat": 51.57038,
    "lng": -0.09601
  },
  {
    "name": "Mansion House",
    "lat": 51.51256,
    "lng": -0.09397
  },
  {
    "name": "Marble Arch",
    "lat": 51.513597,
    "lng": -0.15869195
  },
  {
    "name": "Marylebone",
    "lat": 51.52266,
    "lng": -0.162996
  },
  {
    "name": "Mile End",
    "lat": 51.525306,
    "lng": -0.033471
  },
  {
    "name": "Mill Hill East",
    "lat": 51.60892,
    "lng": -0.20965
  },
  {
    "name": "Monument",
    "lat": 51.510165,
    "lng": -0.085991
  },
  {
    "name": "Moor Park",
    "lat": 51.62970512,
    "lng": -0.432070848
  },
  {
    "name": "Moorgate",
    "lat": 51.51817,
    "lng": -0.08859
  },
  {
    "name": "Morden",
    "lat": 51.40222413,
    "lng": -0.194599126
  },
  {
    "name": "Mornington Crescent",
    "lat": 51.53427,
    "lng": -0.13901
  },
  {
    "name": "Neasden",
    "lat": 51.55427,
    "lng": -0.25042
  },
  {
    "name": "New Cross",
    "lat": 51.477363,
    "lng": -0.0338817
  },
  {
    "name": "New Cross Gate",
    "lat": 51.47585,
    "lng": -0.04049
  },
  {
    "name": "Newbury Park",
    "lat": 51.57565,
    "lng": 0.08927
  },
  {
    "name": "North Acton",
    "lat": 51.5237,
    "lng": -0.26019
  },
  {
    "name": "North Ealing",
    "lat": 51.51807,
    "lng": -0.28838
  },
  {
    "name": "North Greenwich",
    "lat": 51.50056,
    "lng": 0.0036
  },
  {
    "name": "North Harrow",
    "lat": 51.58503612,
    "lng": -0.362595264
  },
  {
    "name": "North Wembley",
    "lat": 51.56258091,
    "lng": -0.304072648
  },
  {
    "name": "Northfields",
    "lat": 51.499856,
    "lng": -0.313188
  },
  {
    "name": "Northolt",
    "lat": 51.548054,
    "lng": -0.368257
  },
  {
    "name": "Northolt",
    "lat": 51.548467,
    "lng": -0.36968
  },
  {
    "name": "Northwick Park",
    "lat": 51.57850117,
    "lng": -0.317857023
  },
  {
    "name": "Northwood",
    "lat": 51.61098984,
    "lng": -0.423584422
  },
  {
    "name": "Northwood Hills",
    "lat": 51.60043795,
    "lng": -0.408812575
  },
  {
    "name": "Notting Hill Gate",
    "lat": 51.509028,
    "lng": -0.1962847
  },
  {
    "name": "Oakwood",
    "lat": 51.64739,
    "lng": -0.13192
  },
  {
    "name": "Old Street",
    "lat": 51.52618,
    "lng": -0.08751
  },
  {
    "name": "Osterley",
    "lat": 51.481569,
    "lng": -0.35196
  },
  {
    "name": "Oval",
    "lat": 51.48214,
    "lng": -0.11284
  },
  {
    "name": "Oxford Circus",
    "lat": 51.51517,
    "lng": -0.14119
  },
  {
    "name": "Paddington",
    "lat": 51.5151846554,
    "lng": -0.17553880792
  },
  {
    "name": "Paddington",
    "lat": 51.519096707,
    "lng": -0.176968859
  },
  {
    "name": "Park Royal",
    "lat": 51.52671,
    "lng": -0.28417
  },
  {
    "name": "Parsons Green",
    "lat": 51.47488,
    "lng": -0.20205
  },
  {
    "name": "Perivale",
    "lat": 51.536673,
    "lng": -0.32391
  },
  {
    "name": "Piccadilly Circus",
    "lat": 51.51022,
    "lng": -0.13392
  },
  {
    "name": "Pimlico",
    "lat": 51.489081,
    "lng": -0.133037
  },
  {
    "name": "Pinner",
    "lat": 51.59270271,
    "lng": -0.380539158
  },
  {
    "name": "Plaistow",
    "lat": 51.53122,
    "lng": 0.01659
  },
  {
    "name": "Preston Road",
    "lat": 51.57229051,
    "lng": -0.295813875
  },
  {
    "name": "Putney Bridge",
    "lat": 51.46868,
    "lng": -0.2088141
  },
  {
    "name": "Queen's Park",
    "lat": 51.534179,
    "lng": -0.205257721
  },
  {
    "name": "Queensbury",
    "lat": 51.59437,
    "lng": -0.28655
  },
  {
    "name": "Queensway",
    "lat": 51.510484,
    "lng": -0.18705
  },
  {
    "name": "Ravenscourt Park",
    "lat": 51.49419,
    "lng": -0.2356
  },
  {
    "name": "Rayners Lane",
    "lat": 51.57534,
    "lng": -0.3724
  },
  {
    "name": "Redbridge",
    "lat": 51.57618,
    "lng": 0.04542
  },
  {
    "name": "Regent's Park",
    "lat": 51.52344,
    "lng": -0.14713
  },
  {
    "name": "Richmond",
    "lat": 51.46343247,
    "lng": -0.302033247
  },
  {
    "name": "Richmond",
    "lat": 51.4632474,
    "lng": -0.300618047
  },
  {
    "name": "Rickmansworth",
    "lat": 51.64027898,
    "lng": -0.473521454
  },
  {
    "name": "Roding Valley",
    "lat": 51.61691,
    "lng": 0.04264
  },
  {
    "name": "Rotherhithe",
    "lat": 51.50089,
    "lng": -0.05211
  },
  {
    "name": "Royal Oak",
    "lat": 51.519383,
    "lng": -0.187785
  },
  {
    "name": "Ruislip",
    "lat": 51.57146,
    "lng": -0.42157
  },
  {
    "name": "Ruislip Gardens",
    "lat": 51.560711,
    "lng": -0.410587
  },
  {
    "name": "Ruislip Manor",
    "lat": 51.57349,
    "lng": -0.41185
  },
  {
    "name": "Russell Square",
    "lat": 51.523243,
    "lng": -0.124336
  },
  {
    "name": "St.James's Park",
    "lat": 51.49971,
    "lng": -0.13394
  },
  {
    "name": "Seven Sisters",
    "lat": 51.58318,
    "lng": -0.07495
  },
  {
    "name": "Shadwell",
    "lat": 51.51115,
    "lng": -0.05693
  },
  {
    "name": "Shepherd's Bush",
    "lat": 51.50474,
    "lng": -0.21881
  },
  {
    "name": "Shepherd's Bush Market",
    "lat": 51.506063,
    "lng": -0.226231
  },
  {
    "name": "Sloane Square",
    "lat": 51.49258474,
    "lng": -0.156090904
  },
  {
    "name": "Snaresbrook",
    "lat": 51.58002,
    "lng": 0.02133
  },
  {
    "name": "South Ealing",
    "lat": 51.500801,
    "lng": -0.307856
  },
  {
    "name": "South Harrow",
    "lat": 51.56461,
    "lng": -0.3521
  },
  {
    "name": "South Kensington",
    "lat": 51.494066,
    "lng": -0.172791
  },
  {
    "name": "South Kenton",
    "lat": 51.57044666,
    "lng": -0.308566354
  },
  {
    "name": "South Ruislip",
    "lat": 51.556795,
    "lng": -0.398708
  },
  {
    "name": "South Wimbledon",
    "lat": 51.41543048,
    "lng": -0.192262754
  },
  {
    "name": "South Woodford",
    "lat": 51.59088,
    "lng": 0.02726
  },
  {
    "name": "Southfields",
    "lat": 51.444941,
    "lng": -0.206466
  },
  {
    "name": "Southgate",
    "lat": 51.6324,
    "lng": -0.12765
  },
  {
    "name": "Southwark",
    "lat": 51.50384,
    "lng": -0.10478
  },
  {
    "name": "St.John's Wood",
    "lat": 51.53472,
    "lng": -0.17428
  },
  {
    "name": "St.Paul's",
    "lat": 51.515285,
    "lng": -0.097598
  },
  {
    "name": "Stamford Brook",
    "lat": 51.494935,
    "lng": -0.24619
  },
  {
    "name": "Stanmore",
    "lat": 51.61895,
    "lng": -0.30241
  },
  {
    "name": "Stepney Green",
    "lat": 51.521884,
    "lng": -0.046546
  },
  {
    "name": "Stockwell",
    "lat": 51.47224,
    "lng": -0.1227
  },
  {
    "name": "Stonebridge Park",
    "lat": 51.54402388,
    "lng": -0.275978856
  },
  {
    "name": "Stratford",
    "lat": 51.541208,
    "lng": -0.003776
  },
  {
    "name": "Stratford",
    "lat": 51.541146,
    "lng": -0.002675
  },
  {
    "name": "Sudbury Hill",
    "lat": 51.556998,
    "lng": -0.335949
  },
  {
    "name": "Sudbury Town",
    "lat": 51.55093,
    "lng": -0.31598
  },
  {
    "name": "Surrey Quays",
    "lat": 51.49365,
    "lng": -0.04816
  },
  {
    "name": "Swiss Cottage",
    "lat": 51.54333,
    "lng": -0.17436
  },
  {
    "name": "Temple",
    "lat": 51.51114,
    "lng": -0.11341
  },
  {
    "name": "Theydon Bois",
    "lat": 51.67246,
    "lng": 0.10354
  },
  {
    "name": "Tooting Bec",
    "lat": 51.43578971,
    "lng": -0.159635693
  },
  {
    "name": "Tooting Broadway",
    "lat": 51.42780008,
    "lng": -0.167910811
  },
  {
    "name": "Tottenham Court Road",
    "lat": 51.5164,
    "lng": -0.13027
  },
  {
    "name": "Tottenham Court Road",
    "lat": 51.51672074,
    "lng": -0.13093911
  },
  {
    "name": "Tottenham Hale",
    "lat": 51.588878,
    "lng": -0.059808
  },
  {
    "name": "Totteridge & Whetstone",
    "lat": 51.63022,
    "lng": -0.17917
  },
  {
    "name": "Tower Hill",
    "lat": 51.50991,
    "lng": -0.076813
  },
  {
    "name": "Tufnell Park",
    "lat": 51.55663,
    "lng": -0.13813
  },
  {
    "name": "Turnham Green",
    "lat": 51.495143,
    "lng": -0.25406
  },
  {
    "name": "Turnpike Lane",
    "lat": 51.59031,
    "lng": -0.10308
  },
  {
    "name": "Upminster",
    "lat": 51.55925,
    "lng": 0.25177
  },
  {
    "name": "Upminster Bridge",
    "lat": 51.55847,
    "lng": 0.23509
  },
  {
    "name": "Upney",
    "lat": 51.53824,
    "lng": 0.09998
  },
  {
    "name": "Upton Park",
    "lat": 51.53514,
    "lng": 0.03373
  },
  {
    "name": "Uxbridge",
    "lat": 51.54687,
    "lng": -0.47725
  },
  {
    "name": "Vauxhall",
    "lat": 51.48603,
    "lng": -0.12369
  },
  {
    "name": "Victoria",
    "lat": 51.49662869,
    "lng": -0.14400853
  },
  {
    "name": "Walthamstow Central",
    "lat": 51.58293,
    "lng": -0.01996
  },
  {
    "name": "Wanstead",
    "lat": 51.57565,
    "lng": 0.02864
  },
  {
    "name": "Wapping",
    "lat": 51.50451,
    "lng": -0.05607
  },
  {
    "name": "Warren Street",
    "lat": 51.5245,
    "lng": -0.1381
  },
  {
    "name": "Warwick Avenue",
    "lat": 51.52329728,
    "lng": -0.183777837
  },
  {
    "name": "Waterloo",
    "lat": 51.50322,
    "lng": -0.11328
  },
  {
    "name": "Watford",
    "lat": 51.65741058,
    "lng": -0.41745306
  },
  {
    "name": "Wembley Central",
    "lat": 51.55122817,
    "lng": -0.29577538
  },
  {
    "name": "Wembley Park",
    "lat": 51.56355598,
    "lng": -0.279770242
  },
  {
    "name": "West Acton",
    "lat": 51.51818,
    "lng": -0.28064
  },
  {
    "name": "West Brompton",
    "lat": 51.48681,
    "lng": -0.19475
  },
  {
    "name": "West Finchley",
    "lat": 51.60922281219,
    "lng": -0.188711152265457
  },
  {
    "name": "West Ham",
    "lat": 51.527917,
    "lng": 0.004141
  },
  {
    "name": "West Hampstead",
    "lat": 51.54678865,
    "lng": -0.191016868
  },
  {
    "name": "West Hampstead",
    "lat": 51.54657,
    "lng": -0.19055
  },
  {
    "name": "West Harrow",
    "lat": 51.5795432,
    "lng": -0.353144584
  },
  {
    "name": "West Kensington",
    "lat": 51.49085,
    "lng": -0.20532
  },
  {
    "name": "West Ruislip",
    "lat": 51.569324,
    "lng": -0.43674
  },
  {
    "name": "Westbourne Park",
    "lat": 51.520995,
    "lng": -0.201778
  },
  {
    "name": "Westminster",
    "lat": 51.50121,
    "lng": -0.12489
  },
  {
    "name": "White City",
    "lat": 51.512206,
    "lng": -0.224226
  },
  {
    "name": "Whitechapel",
    "lat": 51.51946,
    "lng": -0.05951
  },
  {
    "name": "Willesden Green",
    "lat": 51.54919,
    "lng": -0.22106
  },
  {
    "name": "Willesden Junction",
    "lat": 51.53032031,
    "lng": -0.229378995
  },
  {
    "name": "Wimbledon",
    "lat": 51.422,
    "lng": -0.20544
  },
  {
    "name": "Wimbledon Park",
    "lat": 51.43391,
    "lng": -0.19864
  },
  {
    "name": "Wood Green",
    "lat": 51.59709,
    "lng": -0.10939
  },
  {
    "name": "Woodford",
    "lat": 51.60582,
    "lng": 0.03328
  },
  {
    "name": "Woodside Park",
    "lat": 51.6181717295887,
    "lng": -0.185578887883903
  }
]
